City,Latitude,Longitude,Max Temperature (degF),Humidity (%),Cloudiness (%),Wind Speed (mph),Country,Date/Time (UTC)
Ribeira Grande,38.52,-28.7,60.8,67,40,9.17,PT,2020-06-13 23:02:36
Busselton,-33.65,115.33,53.01,86,24,12.68,AU,2020-06-13 23:02:36
Umm Hājar,13.3,19.7,91.62,31,5,8.37,TD,2020-06-13 23:02:36
Constitución,-35.33,-72.42,50.07,67,79,6.44,CL,2020-06-13 23:02:36
Peniche,39.36,-9.38,60.01,86,6,5.68,PT,2020-06-13 23:02:37
Airai,-8.93,125.41,60.58,85,1,3.85,TL,2020-06-13 23:02:37
Puerto Carreño,6.19,-67.49,86.0,62,40,1.05,CO,2020-06-13 23:00:07
Junín,-34.58,-60.94,44.06,55,5,4.9,AR,2020-06-13 23:02:37
Kiboga,0.92,31.77,62.49,98,91,1.83,UG,2020-06-13 23:02:38
Bethel,41.37,-73.41,68.0,40,20,13.87,US,2020-06-13 23:02:38
Albany,42.6,-73.97,59.0,47,30,7.72,US,2020-06-13 23:00:20
Vaini,-21.2,-175.2,75.2,69,75,12.75,TO,2020-06-13 23:02:39
Bluff,-46.6,168.33,40.82,70,0,8.5,NZ,2020-06-13 23:02:39
Dikson,73.51,80.55,34.93,87,100,12.75,RU,2020-06-13 23:02:39
Egvekinot,66.32,-179.17,45.03,67,16,6.38,RU,2020-06-13 23:02:39
Chokurdakh,70.63,147.92,64.09,40,72,6.42,RU,2020-06-13 23:02:39
San Quintín,30.48,-115.95,70.27,56,0,21.14,MX,2020-06-13 23:02:39
Muravlenko,63.79,74.52,43.99,71,100,23.71,RU,2020-06-13 23:02:40
Canto do Buriti,-8.11,-42.94,76.39,62,48,7.45,BR,2020-06-13 23:02:40
Nome,64.5,-165.41,66.99,51,1,12.75,US,2020-06-13 23:02:40
Saldanha,-33.01,17.94,46.4,75,0,3.36,ZA,2020-06-13 23:02:40
Cape Town,-33.93,18.42,50.0,87,20,8.05,ZA,2020-06-13 22:59:29
Punta Arenas,-53.15,-70.92,28.4,86,20,4.7,CL,2020-06-13 22:59:41
Pacific Grove,36.62,-121.92,66.99,48,1,13.87,US,2020-06-13 22:59:13
New Norfolk,-42.78,147.06,52.0,84,100,1.01,AU,2020-06-13 23:02:40
Ushuaia,-54.8,-68.3,33.8,74,40,10.29,AR,2020-06-13 23:02:41
East London,-33.02,27.91,57.42,38,1,7.25,ZA,2020-06-13 23:02:41
Dornoch,57.88,-4.03,57.99,93,73,6.02,GB,2020-06-13 23:01:07
Hobart,-42.88,147.33,54.0,71,75,10.29,AU,2020-06-13 22:59:42
Khasan,42.43,130.64,64.49,86,92,5.23,RU,2020-06-13 23:02:41
George Town,5.41,100.34,80.6,88,20,2.24,MY,2020-06-13 23:01:12
Severo-Kuril'sk,50.68,156.12,40.96,93,100,21.97,RU,2020-06-13 23:02:42
Gaza,31.5,34.47,73.99,76,0,6.93,PS,2020-06-13 23:02:42
Yellowknife,62.46,-114.35,64.4,42,75,14.99,CA,2020-06-13 23:02:43
Sarlat-la-Canéda,44.89,1.22,51.01,91,24,2.84,FR,2020-06-13 23:02:43
Chukhloma,58.75,42.68,43.48,88,19,4.56,RU,2020-06-13 23:02:43
Acajutla,13.59,-89.83,89.6,46,20,5.82,SV,2020-06-13 23:01:51
Yar-Sale,66.83,70.83,43.75,63,30,16.42,RU,2020-06-13 23:02:43
Faanui,-16.48,-151.75,80.85,79,27,9.75,PF,2020-06-13 23:02:44
Araouane,18.9,-3.53,96.87,19,8,3.98,ML,2020-06-13 23:02:44
Cartagena,10.4,-75.51,86.0,79,75,6.93,CO,2020-06-13 23:02:30
Saint George,37.1,-113.58,91.0,6,1,6.93,US,2020-06-13 23:02:44
Ouadda,8.08,22.4,68.97,92,98,2.86,CF,2020-06-13 23:02:44
Rikitea,-23.12,-134.97,76.24,82,100,12.53,PF,2020-06-13 23:02:45
Atuona,-9.8,-139.03,80.74,81,26,20.27,PF,2020-06-13 23:02:45
Pevek,69.7,170.31,41.02,90,100,4.03,RU,2020-06-13 23:02:45
Husavik,66.04,-17.34,51.8,57,97,4.7,IS,2020-06-13 23:02:45
Salalah,17.02,54.09,84.2,94,75,5.82,OM,2020-06-13 23:02:45
Panama City,8.99,-79.52,84.2,74,40,4.7,PA,2020-06-13 23:00:59
Chicama,-7.84,-79.15,66.4,74,19,7.54,PE,2020-06-13 23:02:46
Jamestown,42.1,-79.24,60.8,38,1,11.41,US,2020-06-13 23:02:46
Bilibino,68.05,166.44,66.67,46,53,7.38,RU,2020-06-13 23:02:46
Bredasdorp,-34.53,20.04,51.8,87,38,6.58,ZA,2020-06-13 23:02:46
Carbonear,47.73,-53.21,68.0,82,40,16.11,CA,2020-06-13 23:02:47
Puerto Ayora,-0.74,-90.35,78.8,65,40,19.46,EC,2020-06-13 23:02:47
Lykhivka,48.69,33.92,64.99,92,58,9.95,UA,2020-06-13 23:02:47
Barrow,71.29,-156.79,39.2,86,90,9.17,US,2020-06-13 23:02:47
Karratha,-20.74,116.85,70.9,62,29,10.09,AU,2020-06-13 23:02:47
Casa Grande,32.88,-111.76,105.01,4,1,17.22,US,2020-06-13 23:02:47
Cidreira,-30.18,-50.21,55.71,57,50,15.61,BR,2020-06-13 23:01:46
Port Alfred,-33.59,26.89,54.0,87,29,5.01,ZA,2020-06-13 23:02:48
Amuntai,-2.42,115.25,76.37,93,100,1.43,ID,2020-06-13 23:02:48
Two Hills,53.72,-111.75,71.96,75,98,13.67,CA,2020-06-13 23:02:48
Sitka,57.05,-135.33,53.6,93,90,3.36,US,2020-06-13 23:02:48
Saint-Pierre,-21.34,55.48,68.0,77,75,3.36,RE,2020-06-13 23:02:48
Saint Paul Harbor,57.79,-152.41,62.6,51,75,13.87,US,2020-06-13 23:02:02
Quatre Cocos,-20.21,57.76,71.6,94,40,9.19,MU,2020-06-13 23:02:49
Itarema,-2.92,-39.92,78.13,86,16,9.95,BR,2020-06-13 23:02:49
Hīt,33.64,42.83,77.38,27,0,5.14,IQ,2020-06-13 23:02:49
Haines Junction,60.75,-137.51,68.04,45,73,3.09,CA,2020-06-13 23:02:49
Brae,60.4,-1.35,53.6,87,1,12.75,GB,2020-06-13 23:02:49
Arraial do Cabo,-22.97,-42.03,71.6,94,0,3.36,BR,2020-06-13 23:02:49
Mehamn,71.04,27.85,49.68,66,14,2.06,NO,2020-06-13 23:02:49
Grindavik,63.84,-22.43,46.4,81,75,9.17,IS,2020-06-13 23:02:50
Kadyy,57.79,43.19,45.84,90,0,5.26,RU,2020-06-13 23:02:50
Castro,-24.79,-50.01,62.06,92,100,6.26,BR,2020-06-13 23:02:50
Kiryat Gat,31.61,34.76,73.99,76,0,4.25,IL,2020-06-13 23:01:04
Qaanaaq,77.48,-69.36,40.21,69,11,4.09,GL,2020-06-13 23:02:50
Severodvinsk,64.56,39.83,48.2,87,1,2.24,RU,2020-06-13 23:02:50
São Caetano de Odivelas,-0.75,-48.02,75.79,92,54,5.5,BR,2020-06-13 23:02:51
Avarua,-21.21,-159.78,75.2,53,13,8.05,CK,2020-06-13 23:02:08
Narsaq,60.92,-46.05,44.6,87,100,10.29,GL,2020-06-13 23:02:51
Lagoa,39.05,-27.98,61.81,69,24,16.2,PT,2020-06-13 23:02:51
Destin,30.39,-86.5,86.0,70,1,6.93,US,2020-06-13 23:00:13
Pangnirtung,66.15,-65.71,38.21,75,12,3.18,CA,2020-06-13 23:02:52
Dukat,62.55,155.55,62.19,39,100,3.31,RU,2020-06-13 23:02:52
Reconquista,-29.15,-59.65,47.86,59,0,4.45,AR,2020-06-13 23:02:52
Noumea,-22.28,166.46,78.8,57,14,3.36,NC,2020-06-13 23:00:04
Mossamedes,-15.2,12.15,68.18,73,0,5.68,AO,2020-06-13 23:02:52
Vila Franca do Campo,37.72,-25.43,55.4,82,20,5.82,PT,2020-06-13 23:02:53
Nanortalik,60.14,-45.24,43.16,94,100,9.4,GL,2020-06-13 23:02:53
Grand Gaube,-20.01,57.66,70.0,89,8,5.01,MU,2020-06-13 23:02:53
Nizwá,22.93,57.53,89.29,35,27,2.64,OM,2020-06-13 23:02:53
Semīrom,31.42,51.57,57.65,32,0,3.29,IR,2020-06-13 23:02:53
Mataura,-46.19,168.86,40.41,68,0,3.18,NZ,2020-06-13 23:02:53
Dayong,25.02,118.29,82.4,88,75,8.95,CN,2020-06-13 23:02:54
Vostok,46.49,135.88,64.94,61,100,1.88,RU,2020-06-13 23:02:54
Pendleton,45.67,-118.79,68.0,32,40,27.51,US,2020-06-13 23:02:54
Cabo San Lucas,22.89,-109.91,91.4,29,40,11.41,MX,2020-06-13 22:58:56
Port Elizabeth,-33.92,25.57,50.0,87,69,4.7,ZA,2020-06-13 23:02:30
Santa Isabel Rio Negro,-0.41,-65.02,76.23,95,80,2.48,BR,2020-06-13 23:02:54
Mpongwe,-13.51,28.16,54.09,86,0,7.36,ZM,2020-06-13 23:02:54
Tuktoyaktuk,69.45,-133.04,64.4,52,75,11.41,CA,2020-06-13 23:02:55
Forsytheganj,52.63,29.73,58.12,96,100,13.87,BY,2020-06-13 23:02:55
Kapaa,22.08,-159.32,84.2,62,75,14.99,US,2020-06-13 23:02:55
Killarney,52.05,-9.52,52.68,93,84,1.54,IE,2020-06-13 23:02:55
Porangatu,-13.44,-49.15,73.69,52,68,4.0,BR,2020-06-13 22:59:16
Tomatlán,19.93,-105.25,88.12,57,25,8.37,MX,2020-06-13 23:02:55
Longyearbyen,78.22,15.64,37.4,74,75,13.87,SJ,2020-06-13 23:00:08
Ugoofaaru,5.67,73.0,84.61,76,86,14.16,MV,2020-06-13 23:02:56
Ryōtsu-minato,38.08,138.43,69.8,94,100,5.82,JP,2020-06-13 23:02:56
Ponta do Sol,32.67,-17.1,66.2,77,20,3.36,PT,2020-06-13 23:02:56
Zhigansk,66.77,123.37,54.48,85,96,12.68,RU,2020-06-13 23:02:56
Necochea,-38.55,-58.74,41.0,80,6,10.0,AR,2020-06-13 23:02:57
Port Hedland,-20.32,118.57,68.0,60,21,8.05,AU,2020-06-13 23:02:57
Ambon City,-3.7,128.18,77.0,94,40,2.24,ID,2020-06-13 23:02:57
Hūn,29.13,15.95,82.63,18,0,17.02,LY,2020-06-13 23:02:57
Fort Nelson,58.81,-122.7,55.4,87,90,6.93,CA,2020-06-13 23:02:57
Lebu,-37.62,-73.65,47.91,70,100,6.87,CL,2020-06-13 23:02:58
San Jose,37.34,-121.89,73.99,37,20,14.99,US,2020-06-13 22:57:58
Hilo,19.73,-155.09,82.4,54,90,10.29,US,2020-06-13 23:02:58
Lyuban',52.8,28.0,55.9,94,100,13.82,BY,2020-06-13 23:02:58
Darhan,49.49,105.92,59.47,59,0,7.87,MN,2020-06-13 23:02:58
La Montañita,1.48,-75.44,75.58,91,99,1.32,CO,2020-06-13 23:02:58
Malakanagiri,18.35,81.9,77.49,91,100,3.31,IN,2020-06-13 22:58:03
Poum,-20.23,164.02,75.15,76,53,17.4,NC,2020-06-13 23:02:59
Praia,14.92,-23.51,80.6,69,75,6.93,CV,2020-06-13 23:02:59
Raton,36.9,-104.44,82.4,17,20,27.51,US,2020-06-13 23:02:59
Ovalle,-30.6,-71.2,63.72,27,0,0.87,CL,2020-06-13 23:02:59
Hamilton,39.18,-84.53,73.4,60,40,12.75,US,2020-06-13 23:01:26
Cherskiy,68.75,161.3,66.13,43,35,7.67,RU,2020-06-13 23:02:59
Kaeo,-35.1,173.78,57.0,90,99,3.0,NZ,2020-06-13 23:03:00
Tiksi,71.69,128.87,33.19,94,100,7.16,RU,2020-06-13 23:03:00
Flinders,-34.58,150.86,60.01,95,100,1.01,AU,2020-06-13 23:03:00
Abalak,58.13,68.59,45.82,81,93,10.71,RU,2020-06-13 23:03:00
Mar del Plata,-38.0,-57.56,44.01,70,20,12.75,AR,2020-06-13 22:59:19
Hithadhoo,-0.6,73.08,81.79,75,100,14.07,MV,2020-06-13 23:03:00
Saskylakh,71.92,114.08,44.83,58,96,6.89,RU,2020-06-13 23:03:01
Khatanga,71.97,102.5,47.14,53,0,8.88,RU,2020-06-13 23:03:01
Saint-Philippe,-21.36,55.77,68.0,77,75,3.36,RE,2020-06-13 23:03:01
Morondava,-20.28,44.28,70.84,60,0,12.3,MG,2020-06-13 23:03:01
Ancud,-41.87,-73.82,46.99,100,90,12.75,CL,2020-06-13 23:03:01
Chui,-33.7,-53.46,44.11,64,0,11.18,UY,2020-06-13 23:03:01
Faya,18.39,42.45,73.4,64,23,2.44,SA,2020-06-13 23:03:02
Lavrentiya,65.58,-171.0,46.51,77,23,9.42,RU,2020-06-13 23:03:02
Qaqortoq,60.72,-46.03,44.6,87,100,10.29,GL,2020-06-13 23:03:02
Revelstoke,50.98,-118.2,57.2,76,90,14.99,CA,2020-06-13 23:03:02
Tuatapere,-46.13,167.68,44.22,74,0,5.41,NZ,2020-06-13 23:03:02
Leningradskiy,69.38,178.42,59.65,48,10,1.7,RU,2020-06-13 23:03:02
Kempele,64.91,25.5,55.4,71,0,3.36,FI,2020-06-13 23:03:03
Klaksvík,62.23,-6.59,48.2,93,88,2.24,FO,2020-06-13 23:03:03
Meadow Lake,34.8,-106.54,75.99,40,75,32.21,US,2020-06-13 23:03:03
Lázaro Cárdenas,17.96,-102.2,84.27,74,97,10.76,MX,2020-06-13 23:02:37
Mahébourg,-20.41,57.7,71.6,94,40,9.46,MU,2020-06-13 23:03:03
Dawei,14.08,98.2,79.36,87,87,0.87,MM,2020-06-13 23:03:03
Pāchora,20.67,75.35,82.53,71,99,3.33,IN,2020-06-13 23:03:04
Butaritari,3.07,172.79,82.89,72,36,10.54,KI,2020-06-13 23:03:04
Talnakh,69.49,88.4,50.0,53,100,11.18,RU,2020-06-13 23:03:04
Phalaborwa,-23.94,31.14,53.6,54,0,4.7,ZA,2020-06-13 23:03:04
Bengkulu,-3.8,102.27,74.05,85,56,3.96,ID,2020-06-13 23:03:04
Praxédis Guerrero,31.37,-106.02,95.0,13,20,12.75,MX,2020-06-13 23:03:04
Ulladulla,-35.35,150.47,55.99,100,100,7.94,AU,2020-06-13 23:03:05
Ngama,11.78,17.17,82.38,54,79,14.12,TD,2020-06-13 23:03:05
Kattivākkam,13.22,80.32,87.8,66,40,6.93,IN,2020-06-13 23:03:05
Dengzhou,37.81,120.75,71.82,83,71,6.93,CN,2020-06-13 23:03:05
Huarmey,-10.07,-78.15,65.44,78,0,8.84,PE,2020-06-13 23:03:05
Bushehr,28.97,50.84,87.98,41,2,20.96,IR,2020-06-13 23:03:05
Nova Milanese,45.59,9.2,62.6,93,97,3.36,IT,2020-06-13 23:03:05
Bosaso,11.28,49.18,91.8,46,100,9.53,SO,2020-06-13 23:03:06
Los Llanos de Aridane,28.66,-17.92,69.8,68,7,6.93,ES,2020-06-13 23:03:06
São João da Barra,-21.64,-41.05,74.21,82,0,10.33,BR,2020-06-13 22:59:12
Alice Springs,-23.7,133.88,57.2,54,90,10.29,AU,2020-06-13 23:02:31
Caçu,-18.56,-51.13,71.83,55,1,2.89,BR,2020-06-13 23:03:07
Russell,32.35,-85.2,89.6,33,40,9.17,US,2020-06-13 23:01:02
Kungurtug,50.6,97.52,54.61,56,0,1.57,RU,2020-06-13 23:03:07
Katherine,-14.47,132.27,71.6,46,0,5.82,AU,2020-06-13 23:03:07
Kahului,20.89,-156.47,87.8,43,40,23.04,US,2020-06-13 23:03:07
Beisfjord,68.38,17.6,60.8,51,79,10.29,NO,2020-06-13 23:03:07
Tasiilaq,65.61,-37.64,42.8,81,100,10.29,GL,2020-06-13 23:03:07
Bartica,6.4,-58.62,77.0,100,40,4.7,GY,2020-06-13 23:03:08
Plácido de Castro,-10.34,-67.19,75.27,91,59,2.13,BR,2020-06-13 23:03:08
Porto Walter,-8.27,-72.74,79.27,68,26,2.28,BR,2020-06-13 23:03:08
Hermanus,-34.42,19.23,54.63,57,19,8.37,ZA,2020-06-13 23:03:08
Ürümqi,43.8,87.6,73.4,33,97,6.71,CN,2020-06-13 23:03:08
Massaguet,12.48,15.44,84.2,51,58,8.05,TD,2020-06-13 23:03:09
Nikolskoye,59.7,30.79,55.0,62,0,2.24,RU,2020-06-13 23:03:09
Taber,49.82,-112.15,71.6,60,75,11.41,CA,2020-06-13 23:00:02
Geraldton,-28.77,114.6,51.8,87,40,13.87,AU,2020-06-13 23:03:09
Camden,39.78,-74.97,75.99,40,0,4.45,US,2020-06-13 23:03:09
Provideniya,64.38,-173.3,47.44,79,91,7.14,RU,2020-06-13 23:03:09
Bubaque,11.28,-15.83,81.57,82,96,10.92,GW,2020-06-13 23:03:10
San Patricio,19.22,-104.7,84.2,74,40,11.41,MX,2020-06-13 23:03:10
Tsimmerbude,54.67,20.13,60.8,82,8,8.95,RU,2020-06-13 23:03:10
Yurginskoye,56.82,67.39,43.02,76,11,10.36,RU,2020-06-13 23:03:10
Porto Nacional,-10.71,-48.42,78.8,57,26,4.7,BR,2020-06-13 23:03:11
Hong Kong,22.29,114.16,81.0,89,98,5.99,HK,2020-06-13 22:59:40
Jalu,29.03,21.55,76.66,26,2,11.97,LY,2020-06-13 23:03:11
Yangi Marg`ilon,40.43,71.72,69.8,40,0,9.17,UZ,2020-06-13 23:03:11
Minas,-34.38,-55.24,51.01,71,75,23.04,UY,2020-06-13 23:03:11
Zihuatanejo,17.63,-101.55,89.6,62,5,12.75,MX,2020-06-13 23:03:11
Yulara,-25.24,130.99,39.2,62,0,6.93,AU,2020-06-13 23:03:11
Kruisfontein,-34.0,24.73,51.4,66,98,4.29,ZA,2020-06-13 23:03:12
Avera,33.19,-82.53,84.2,45,1,8.05,US,2020-06-13 23:03:12
Penicuik,55.83,-3.22,53.6,100,90,4.7,GB,2020-06-13 23:03:12
Ilulissat,69.22,-51.1,42.8,60,89,6.93,GL,2020-06-13 23:03:12
Ndola,-12.96,28.64,53.15,88,0,7.02,ZM,2020-06-13 23:03:13
Dondo,-19.61,34.74,71.6,68,75,16.11,MZ,2020-06-13 23:03:13
Upernavik,72.79,-56.15,34.75,86,0,3.22,GL,2020-06-13 23:03:13
Norman Wells,65.28,-126.83,75.2,27,75,21.92,CA,2020-06-13 23:03:13
Bembèrèkè,10.23,2.66,75.83,77,96,3.56,BJ,2020-06-13 23:03:13
Isangel,-19.55,169.27,78.8,74,75,9.17,VU,2020-06-13 23:03:13
Hofn,64.25,-15.21,46.06,82,34,5.5,IS,2020-06-13 23:03:04
Tommot,58.96,126.29,60.01,72,53,6.22,RU,2020-06-13 23:03:14
Hambantota,6.12,81.12,81.05,78,20,16.15,LK,2020-06-13 23:03:14
Bonthe,7.53,-12.51,79.09,85,100,6.8,SL,2020-06-13 23:03:14
Berlevåg,70.86,29.09,48.33,73,4,2.19,NO,2020-06-13 23:03:14
Muros,42.78,-9.06,59.0,83,79,4.0,ES,2020-06-13 23:03:14
Dunda,-8.12,34.25,56.84,71,12,3.18,TZ,2020-06-13 23:03:15
Mercedes,-34.65,-59.43,45.0,52,3,6.17,AR,2020-06-13 23:03:15
Sayyan,15.17,44.32,63.7,48,95,2.42,YE,2020-06-13 23:03:15
Kyra,49.58,111.98,57.13,60,47,5.35,RU,2020-06-13 23:03:15
Deep River,46.1,-77.5,62.6,39,1,9.17,CA,2020-06-13 23:03:15
Thinadhoo,0.53,72.93,83.73,67,100,14.47,MV,2020-06-13 23:03:16
Carauari,-4.88,-66.9,78.51,82,60,2.57,BR,2020-06-13 23:03:16
Jorochito,-18.05,-63.43,68.0,82,75,20.8,BO,2020-06-13 23:03:16
Clyde River,70.47,-68.59,33.8,96,1,13.87,CA,2020-06-13 23:03:16
Asău,46.43,26.4,63.0,83,52,4.9,RO,2020-06-13 23:03:16
Vanavara,60.34,102.28,53.76,96,99,3.53,RU,2020-06-13 23:03:16
Tabou,4.42,-7.35,77.58,87,100,9.98,CI,2020-06-13 23:03:17
Rusera,25.75,86.03,80.29,89,94,12.44,IN,2020-06-13 23:03:17
Oodweyne,9.41,45.06,72.64,64,79,12.21,SO,2020-06-13 23:03:17
Znamenskoye,57.13,73.83,41.36,78,0,7.74,RU,2020-06-13 23:03:18
Samarai,-10.62,150.67,81.03,84,29,13.49,PG,2020-06-13 23:03:18
Itoman,26.12,127.67,84.2,89,20,10.29,JP,2020-06-13 23:03:19
Ouésso,1.61,16.05,71.55,91,87,1.57,CG,2020-06-13 23:02:05
Örnsköldsvik,63.29,18.72,50.0,71,0,4.7,SE,2020-06-13 23:03:19
Neuquén,-38.95,-68.06,44.6,70,100,5.86,AR,2020-06-13 23:03:19
At-Bashi,41.17,75.81,46.63,54,12,0.89,KG,2020-06-13 23:03:19
Tessalit,20.2,1.01,97.65,10,15,8.63,ML,2020-06-13 23:03:20
Skjervøy,70.03,20.97,55.44,58,81,7.92,NO,2020-06-13 23:03:20
Hasaki,35.73,140.83,70.0,100,75,8.05,JP,2020-06-13 23:03:20
Kyabram,-36.32,145.05,52.0,90,6,10.04,AU,2020-06-13 23:00:14
Aktash,50.3,87.73,43.56,85,92,2.3,RU,2020-06-13 23:03:20
San Miguel de Tucumán,-26.82,-65.22,59.0,41,0,4.7,AR,2020-06-13 23:00:15
San Cristobal,7.77,-72.22,70.97,78,49,4.45,VE,2020-06-13 23:03:20
Coahuayana Viejo,18.73,-103.68,84.2,70,40,17.22,MX,2020-06-13 23:03:21
Kayerkan,69.35,87.76,50.0,53,100,11.18,RU,2020-06-13 23:03:21
Esim,4.87,-2.24,77.47,89,34,6.35,GH,2020-06-13 23:03:21
San Juan,-31.54,-68.54,48.74,46,0,1.61,AR,2020-06-13 23:00:58
Makokou,0.57,12.86,70.3,96,56,2.01,GA,2020-06-13 23:02:05
Evensk,61.95,159.23,57.13,54,96,4.0,RU,2020-06-13 23:03:22
Batagay,67.63,134.63,70.43,37,22,8.95,RU,2020-06-13 23:03:22
Lucea,18.45,-78.17,81.0,83,40,1.12,JM,2020-06-13 23:03:22
Andenes,69.31,16.12,59.0,58,57,10.29,NO,2020-06-13 23:03:22
Vardø,70.37,31.11,46.24,80,24,2.77,NO,2020-06-13 23:03:23
Udachny,66.42,112.4,37.4,100,90,6.71,RU,2020-06-13 23:03:23
Acapulco de Juárez,16.86,-99.89,87.8,66,20,11.41,MX,2020-06-13 23:00:06
Katangli,51.71,143.23,42.13,96,100,11.3,RU,2020-06-13 23:03:23
Lar,26.2,83.97,85.6,70,38,13.47,IN,2020-06-13 23:03:23
Dalvik,65.97,-18.53,51.8,57,95,4.7,IS,2020-06-13 23:03:24
Dunedin,-45.87,170.5,48.99,47,0,10.0,NZ,2020-06-13 23:03:24
Souillac,-20.52,57.52,71.6,94,40,7.9,MU,2020-06-13 23:03:24
Gouré,13.98,10.27,84.99,53,17,3.0,NE,2020-06-13 23:03:24
Dongsheng,39.82,109.98,59.49,45,0,4.25,CN,2020-06-13 23:03:24
Coyhaique,-45.58,-72.07,39.2,86,90,5.82,CL,2020-06-13 23:03:25
Talcahuano,-36.72,-73.12,50.0,66,100,9.17,CL,2020-06-13 23:03:25
Fuling,29.7,107.39,78.24,81,47,2.44,CN,2020-06-13 23:03:25
Béré,9.32,16.16,75.94,78,66,12.59,TD,2020-06-13 23:03:25
Touros,-5.2,-35.46,77.0,94,40,2.24,BR,2020-06-13 23:03:25
Ritchie,-29.04,24.6,33.8,80,0,3.36,ZA,2020-06-13 23:03:25
Mount Isa,-20.73,139.5,69.8,32,0,6.93,AU,2020-06-13 23:03:25
Tall Kayf,37.08,41.07,70.52,31,0,1.21,TR,2020-06-13 23:03:26
Mayor Pablo Lagerenza,-19.93,-60.77,61.48,89,100,16.64,PY,2020-06-13 23:03:26
Mersing,2.43,103.84,75.2,94,93,5.82,MY,2020-06-13 23:03:26
Vaitape,-16.52,-151.75,81.72,77,24,9.53,PF,2020-06-13 23:03:26
Kresna,41.73,23.15,63.46,72,14,5.59,BG,2020-06-13 23:03:26
Wembley,-31.93,115.8,57.99,93,75,5.82,AU,2020-06-13 23:03:27
Lorengau,-2.02,147.27,85.23,68,71,8.08,PG,2020-06-13 23:01:06
Arrondissement de Saint-Denis,48.92,2.33,63.0,72,68,4.7,FR,2020-06-13 23:03:27
Caravelas,-17.71,-39.25,71.85,89,0,3.47,BR,2020-06-13 23:03:27
Yichang,30.71,111.28,72.0,84,97,1.01,CN,2020-06-13 23:03:27
Oktyabr'skiy,54.48,53.47,45.7,79,93,7.11,RU,2020-06-13 23:03:27
Beidao,34.57,105.89,59.49,69,58,0.81,CN,2020-06-13 23:03:28
Sioux Lookout,50.1,-91.92,68.0,30,20,9.17,CA,2020-06-13 23:01:52
Shakiso,5.75,38.92,59.72,96,100,1.21,ET,2020-06-13 23:03:29
Nucet,44.78,25.55,66.2,100,34,6.93,RO,2020-06-13 23:03:29
Virginia Beach,36.85,-75.98,72.0,64,40,11.41,US,2020-06-13 22:59:21
Hubli,15.35,75.17,73.69,86,100,17.9,IN,2020-06-13 23:03:29
Maykor,59.01,55.88,39.63,78,0,6.58,RU,2020-06-13 23:03:29
Broome,42.25,-75.83,59.0,44,1,11.41,US,2020-06-13 23:03:30
Namatanai,-3.67,152.43,84.85,70,23,7.05,PG,2020-06-13 23:03:30
Thompson,55.74,-97.86,69.8,32,75,11.41,CA,2020-06-13 22:58:39
Jussara,-23.62,-52.47,66.99,79,79,1.01,BR,2020-06-13 23:03:30
Praia da Vitória,38.73,-27.07,57.2,82,40,6.78,PT,2020-06-13 23:03:30
San Carlos,9.66,-68.58,77.27,86,76,1.9,VE,2020-06-13 23:00:10
Bambanglipuro,-7.95,110.28,76.84,90,65,5.12,ID,2020-06-13 23:03:31
Ried,48.48,11.26,68.0,77,98,11.41,DE,2020-06-13 23:03:31
Kamenka,51.32,42.77,66.99,67,67,19.98,RU,2020-06-13 23:03:31
Yuli,9.7,10.27,80.19,69,59,4.38,NG,2020-06-13 23:03:31
Šilalė,55.49,22.18,54.73,72,0,9.93,LT,2020-06-13 23:03:31
Sørland,67.67,12.69,53.6,87,54,5.82,NO,2020-06-13 23:03:31
Languyan,5.26,120.08,80.49,84,98,7.47,PH,2020-06-13 23:03:32
Havre-St-Pierre,50.23,-63.6,57.2,44,75,6.93,CA,2020-06-13 23:03:32
Matara,5.95,80.54,80.13,84,33,11.07,LK,2020-06-13 23:03:32
Verkhnetulomskiy,68.61,31.8,59.0,38,74,6.71,RU,2020-06-13 23:03:32
Pacocha,-17.58,-71.33,62.02,83,18,3.94,PE,2020-06-13 23:03:33
Novoagansk,61.94,76.66,44.64,86,100,11.5,RU,2020-06-13 23:03:33
Tsiroanomandidy,-18.77,46.03,54.18,72,0,3.15,MG,2020-06-13 23:03:33
Fairhope,30.52,-87.9,79.0,94,75,8.5,US,2020-06-13 23:03:33
Havelock,34.88,-76.9,69.01,88,90,13.87,US,2020-06-13 23:03:33
Batabanó,22.72,-82.29,82.0,78,75,2.24,CU,2020-06-13 23:03:34
Frontera,26.93,-101.45,91.99,18,0,7.0,MX,2020-06-13 23:03:34
Oranjemund,-28.55,16.43,55.87,41,0,3.91,NA,2020-06-13 23:03:34
Cockburn Town,21.46,-71.14,86.0,62,40,5.82,TC,2020-06-13 23:00:42
Bagotville,-28.98,153.42,69.8,88,40,11.41,AU,2020-06-13 23:03:34
Warner Robins,32.62,-83.6,89.6,40,1,5.82,US,2020-06-13 23:03:34
Port Blair,11.67,92.75,82.9,81,98,12.41,IN,2020-06-13 23:03:34
Ishigaki,24.34,124.16,82.4,100,40,10.29,JP,2020-06-13 23:03:35
Igrim,63.19,64.42,40.68,70,41,8.37,RU,2020-06-13 23:03:35
Tilichiki,60.47,166.1,50.63,54,75,4.88,RU,2020-06-13 23:03:35
Ayan,56.45,138.17,46.56,78,93,4.14,RU,2020-06-13 23:03:36
Itanagar,27.1,93.62,73.47,89,72,1.97,IN,2020-06-13 23:03:36
Biloxi,30.4,-88.89,84.2,78,75,9.17,US,2020-06-13 23:03:36
Sainte-Suzanne,-20.91,55.61,71.6,68,40,8.05,RE,2020-06-13 23:03:36
Beira,-19.84,34.84,71.6,68,75,16.11,MZ,2020-06-13 23:00:46
Millinocket,45.66,-68.71,60.8,41,90,6.93,US,2020-06-13 23:02:23
Marsá Maţrūḩ,31.35,27.25,68.0,77,0,6.93,EG,2020-06-13 23:03:37
Bulls,-40.17,175.38,48.99,84,0,1.01,NZ,2020-06-13 23:03:37
Nagīna,29.45,78.45,88.77,40,0,5.01,IN,2020-06-13 23:03:37
Safi,32.3,-9.24,68.72,79,24,3.38,MA,2020-06-13 23:03:37
Esperance,-33.87,121.9,50.0,93,28,14.99,AU,2020-06-13 23:00:11
Lovozero,68.0,35.01,58.3,56,80,7.74,RU,2020-06-13 23:03:38
Chālūs,36.66,51.42,71.6,78,0,0.49,IR,2020-06-13 23:03:38
Padang,-0.95,100.35,78.98,71,41,3.69,ID,2020-06-13 23:03:38
Kavieng,-2.57,150.8,85.17,72,22,10.94,PG,2020-06-13 23:03:38
Gulu,2.77,32.3,63.45,94,8,3.02,UG,2020-06-13 23:03:38
Dubrovnik,42.65,18.09,62.6,88,47,6.93,HR,2020-06-13 22:59:30
Sorong,-0.88,131.25,79.14,83,68,4.23,ID,2020-06-13 23:03:39
Uray,60.12,64.78,41.47,73,0,9.26,RU,2020-06-13 23:03:39
Portland,45.52,-122.68,59.0,82,90,12.75,US,2020-06-13 22:59:11
Svetlaya,46.54,138.33,53.55,74,36,5.79,RU,2020-06-13 23:03:39
Dauphin,51.15,-100.05,78.8,31,1,23.04,CA,2020-06-13 23:01:33
Krutikha,53.96,81.21,63.59,78,68,4.79,RU,2020-06-13 23:03:39
Kilindoni,-7.91,39.67,79.25,72,45,21.7,TZ,2020-06-13 23:03:40
Mizdah,31.45,12.98,79.65,25,0,14.72,LY,2020-06-13 23:03:40
Carnarvon,-24.87,113.63,60.1,43,24,20.94,AU,2020-06-13 23:03:40
Lüderitz,-26.65,15.16,60.8,34,0,8.05,NA,2020-06-13 23:03:40
Marrakesh,31.63,-8.01,69.8,64,40,9.17,MA,2020-06-13 23:03:40
Olafsvik,64.89,-23.71,46.06,80,75,12.82,IS,2020-06-13 23:03:41
Nemuro,43.32,145.57,56.55,84,0,6.64,JP,2020-06-13 23:03:41
Yerky,48.99,30.99,68.02,92,100,9.98,UA,2020-06-13 23:03:41
Marawi,8.0,124.29,79.0,88,100,5.01,PH,2020-06-13 23:03:41
Yumen,40.28,97.2,65.01,27,100,7.0,CN,2020-06-13 23:03:41
Isla Vista,34.41,-119.86,80.01,36,1,18.34,US,2020-06-13 23:03:41
Kamari,36.8,25.82,70.0,68,33,1.01,GR,2020-06-13 23:03:42
Kaitangata,-46.28,169.85,35.01,73,0,5.99,NZ,2020-06-13 23:03:42
Ostrovnoy,68.05,39.51,56.01,63,48,15.03,RU,2020-06-13 23:03:42
Saint Anthony,45.02,-93.22,71.6,43,40,12.75,US,2020-06-13 23:03:42
Caniço,32.63,-16.85,66.2,77,20,3.36,PT,2020-06-13 23:03:43
Corinth,37.94,22.96,66.99,60,0,1.99,GR,2020-06-13 23:03:43
Coquimbo,-29.95,-71.34,57.2,76,0,4.7,CL,2020-06-13 23:03:43
Roald,62.58,6.13,62.01,72,61,6.93,NO,2020-06-13 23:01:05
Cayenne,4.93,-52.33,75.2,100,75,2.24,GF,2020-06-13 23:03:44
Basco,20.45,121.97,84.29,77,2,10.92,PH,2020-06-13 23:03:44
Aloleng,16.13,119.78,81.34,76,100,7.25,PH,2020-06-13 23:03:44
Bathsheba,13.22,-59.52,82.4,65,75,18.34,BB,2020-06-13 23:03:44
Byron Bay,-28.65,153.62,70.0,88,40,11.41,AU,2020-06-13 23:03:45
Eureka,40.8,-124.16,66.0,71,90,1.01,US,2020-06-13 23:03:45
Shetpe,44.17,52.12,84.76,14,0,9.75,KZ,2020-06-13 23:03:45
Phalombe,-15.81,35.65,60.85,89,84,5.21,MW,2020-06-13 23:03:45
Kumluca,36.37,30.29,70.47,59,50,3.27,TR,2020-06-13 23:03:45
Djambala,-2.54,14.75,69.01,94,2,4.05,CG,2020-06-13 23:03:45
Katsuura,35.13,140.3,71.01,94,100,4.0,JP,2020-06-13 23:03:46
Constantine,36.37,6.61,59.0,72,20,1.12,DZ,2020-06-13 23:03:46
Klyuchi,52.27,79.17,67.93,68,88,2.95,RU,2020-06-13 23:03:46
Olden,61.84,6.81,59.0,73,13,3.09,NO,2020-06-13 23:03:46
Dabakala,8.37,-4.43,73.98,90,61,5.82,CI,2020-06-13 23:03:46
Inhambane,-23.86,35.38,64.26,68,11,6.93,MZ,2020-06-13 23:03:48
Mahajanga,-15.72,46.32,69.8,68,14,2.24,MG,2020-06-13 23:03:48
Kawalu,-7.38,108.21,71.62,92,84,0.94,ID,2020-06-13 23:03:48
Altay,47.87,88.12,60.87,35,72,3.49,CN,2020-06-13 23:03:48
Meziměstí,50.62,16.24,69.01,83,56,5.46,CZ,2020-06-13 23:03:48
San Rafael,-34.62,-68.33,47.59,46,2,6.71,AR,2020-06-13 23:03:49
Kununurra,-15.77,128.73,64.4,33,0,1.12,AU,2020-06-13 23:03:18
Envira,-7.3,-70.22,75.33,89,10,2.01,BR,2020-06-13 23:03:49
Talaya,61.38,152.75,64.63,40,91,3.11,RU,2020-06-13 23:03:49
North Bend,43.41,-124.22,63.0,63,90,16.11,US,2020-06-13 23:03:49
Cape Coast,5.11,-1.25,77.88,87,87,7.85,GH,2020-06-13 23:03:50
Montijo,38.71,-8.97,62.6,72,1,5.82,PT,2020-06-13 23:03:50
Sekoma,-24.4,23.88,40.66,64,0,6.8,BW,2020-06-13 23:03:50
Nam Phong,16.7,102.86,75.2,100,75,4.7,TH,2020-06-13 23:03:50
Lata,40.16,-8.33,62.01,85,10,1.34,PT,2020-06-13 23:03:50
Viedma,-40.81,-63.0,43.97,59,98,7.81,AR,2020-06-13 22:59:34
Marzuq,14.4,46.47,83.73,42,98,4.21,YE,2020-06-13 23:03:50
Kumul,42.8,93.45,74.34,19,100,1.19,CN,2020-06-13 23:03:51
Mount Gambier,-37.83,140.77,46.4,100,40,12.75,AU,2020-06-13 23:03:51
Prince Rupert,54.32,-130.32,53.6,81,90,2.24,CA,2020-06-13 23:03:51
Riyadh,24.69,46.72,87.8,22,1,2.24,SA,2020-06-13 23:03:51
Rutana Province,-3.87,30.1,60.21,83,80,3.0,BI,2020-06-13 23:03:52
Madera,37.17,-119.83,77.0,24,0,1.99,US,2020-06-13 23:03:52
Dingzhou,38.51,115.0,75.2,44,0,6.11,CN,2020-06-13 23:03:52
Ahipara,-35.17,173.17,59.18,82,42,8.63,NZ,2020-06-13 23:03:52
Bilma,18.69,12.92,91.08,17,7,2.84,NE,2020-06-13 23:03:52
San Fernando del Valle de Catamarca,-28.47,-65.79,57.0,53,0,7.0,AR,2020-06-13 23:03:03
Sarkand,45.41,79.92,59.81,43,25,6.31,KZ,2020-06-13 23:03:53
Shimoda,34.67,138.95,64.99,96,100,4.0,JP,2020-06-13 23:03:53
Labuhan,-6.88,112.21,77.58,88,98,1.54,ID,2020-06-13 23:03:53
San Policarpo,12.18,125.51,82.72,84,100,9.15,PH,2020-06-13 23:03:53
Pittsfield,42.45,-73.25,59.0,47,1,10.29,US,2020-06-13 23:00:16
Port Hardy,50.7,-127.42,59.0,67,20,13.87,CA,2020-06-13 23:02:52
Uíge,-7.61,15.06,64.38,77,0,1.66,AO,2020-06-13 23:03:54
Atar,20.52,-13.05,93.33,29,81,7.65,MR,2020-06-13 23:03:54
Dingle,11.0,122.67,78.01,84,100,6.93,PH,2020-06-13 23:03:54
Mbandaka,0.05,18.26,71.87,87,6,1.32,CD,2020-06-13 23:03:54
Sinop Province,41.77,34.87,55.72,79,81,5.3,TR,2020-06-13 23:03:55
Saint-François,46.42,3.91,59.0,67,95,4.7,FR,2020-06-13 23:03:55
Sobolevo,54.43,31.9,50.7,93,100,16.89,RU,2020-06-13 23:03:55
College,64.86,-147.8,75.0,40,75,3.36,US,2020-06-13 23:03:55
Montes Altos,-5.83,-47.07,76.26,72,24,4.38,BR,2020-06-13 23:03:56
Bela,25.93,81.98,89.78,56,41,11.9,IN,2020-06-13 23:03:56
Antofagasta,-23.65,-70.4,59.0,77,40,8.05,CL,2020-06-13 23:03:56
Tateyama,34.98,139.87,71.01,94,100,4.0,JP,2020-06-13 23:01:43
Taltal,-25.4,-70.48,59.07,72,17,2.75,CL,2020-06-13 23:03:57
Henties Bay,-22.12,14.28,61.59,46,0,0.94,NA,2020-06-13 23:03:57
Mafra,-26.11,-49.81,62.01,91,100,7.0,BR,2020-06-13 23:01:02
Yermakovskoye,53.28,92.4,60.55,82,16,1.48,RU,2020-06-13 23:03:57
Biaora,23.87,76.92,86.34,51,97,8.23,IN,2020-06-13 23:03:57
Wanaka,-44.7,169.15,35.01,86,0,2.8,NZ,2020-06-13 23:03:57
Aykhal,66.0,111.5,37.4,100,90,6.71,RU,2020-06-13 23:03:58
Walvis Bay,-22.96,14.51,62.6,18,0,13.87,NA,2020-06-13 23:03:58
Ystad,55.43,13.82,59.0,67,3,14.99,SE,2020-06-13 23:03:58
Severnoye,56.35,78.36,48.33,88,52,7.83,RU,2020-06-13 23:03:58
Ranong,9.97,98.63,80.83,81,83,7.49,TH,2020-06-13 23:03:58
Lompoc,34.64,-120.46,66.2,55,0,19.46,US,2020-06-13 23:00:00
Linguère,15.4,-15.12,88.16,44,81,16.26,SN,2020-06-13 23:03:59
Saint-Augustin,51.23,-58.65,55.74,63,53,15.88,CA,2020-06-13 23:03:59
Carballo,43.21,-8.69,57.0,83,80,1.99,ES,2020-06-13 23:03:23
Paidha,2.42,30.99,60.94,93,99,5.5,UG,2020-06-13 23:03:59
Mahibadhoo,3.78,72.97,85.28,73,99,14.32,MV,2020-06-13 23:03:59
Yagodnoye,62.55,149.67,65.82,36,85,4.23,RU,2020-06-13 23:04:00
Kota Belud,6.35,116.43,75.99,94,20,4.7,MY,2020-06-13 23:04:00
Gonzalez,30.58,-87.29,87.01,66,1,8.05,US,2020-06-13 23:04:00
Camacupa,-12.02,17.48,52.14,56,0,4.5,AO,2020-06-13 23:04:00
Banjar,-8.19,114.97,80.6,100,20,10.29,ID,2020-06-13 23:04:00
Wewak,-3.55,143.63,81.39,79,64,5.17,PG,2020-06-13 23:04:00
Bitung,1.45,125.18,75.2,100,20,3.36,ID,2020-06-13 23:01:38
Korla,41.76,86.15,70.0,45,21,4.0,CN,2020-06-13 23:04:01
Pundaguitan,6.37,126.17,84.06,72,100,6.11,PH,2020-06-13 23:04:01
Torbay,47.67,-52.73,68.0,82,40,16.11,CA,2020-06-13 23:04:01
Shanghai,31.22,121.46,88.0,83,96,6.71,CN,2020-06-13 22:59:03
Yanam,16.73,82.22,81.55,81,100,7.29,IN,2020-06-13 23:04:02
Saquena,-4.67,-73.52,76.73,90,75,1.54,PE,2020-06-13 23:04:02
Oktyabr'skoye,43.06,44.74,66.0,88,82,2.24,RU,2020-06-13 23:04:02
Nirgua,10.16,-68.57,70.34,95,38,1.48,VE,2020-06-13 23:04:02
Muroto-misakicho,33.28,134.15,75.2,100,75,1.12,JP,2020-06-13 23:04:02
Severo-Yeniseyskiy,60.37,93.04,57.99,94,100,7.72,RU,2020-06-13 23:04:02
Waddān,29.16,16.14,82.31,19,0,18.66,LY,2020-06-13 23:04:02
Kuytun,54.34,101.5,59.58,78,1,1.95,RU,2020-06-13 23:04:03
Astara,38.5,48.67,66.2,68,0,2.24,AZ,2020-06-13 23:04:03
Arboletes,8.85,-76.43,89.6,66,40,11.41,CO,2020-06-13 23:04:03
Kinablangan,7.69,126.55,82.24,74,98,1.54,PH,2020-06-13 23:04:03
São Filipe,14.9,-24.5,76.03,82,87,9.26,CV,2020-06-13 23:04:03
Tashla,51.77,52.74,52.68,76,1,12.59,RU,2020-06-13 23:04:03
Kloulklubed,7.04,134.26,78.8,94,75,4.7,PW,2020-06-13 23:04:04
Song Phi Nong,14.22,100.02,88.0,63,100,7.9,TH,2020-06-13 23:04:04
Samarkand,39.65,66.96,68.0,52,59,4.7,UZ,2020-06-13 23:03:59
Teya,60.38,92.63,60.89,88,99,6.4,RU,2020-06-13 23:04:04
Anloga,5.79,0.9,78.8,88,20,9.17,GH,2020-06-13 23:04:04
Adrar,20.5,-10.07,97.18,17,62,13.27,MR,2020-06-13 23:04:04
Seoul,37.57,126.98,73.4,73,75,2.24,KR,2020-06-13 23:03:24
Barra do Garças,-15.89,-52.26,76.05,51,56,1.48,BR,2020-06-13 23:04:04
Poddor'ye,57.47,31.12,50.22,75,0,6.73,RU,2020-06-13 23:04:05
Rudnichnyy,59.62,52.47,38.16,84,0,4.5,RU,2020-06-13 23:04:05
Dwārka,22.24,68.97,85.15,83,86,11.68,IN,2020-06-13 23:03:04
Lugo,43.0,-7.5,53.01,88,71,5.01,ES,2020-06-13 23:04:05
Kushiro,42.98,144.37,66.2,72,20,4.7,JP,2020-06-13 23:04:05
Nakhon Thai,17.1,100.84,77.14,87,100,1.05,TH,2020-06-13 23:04:06
Capão da Canoa,-29.75,-50.01,57.25,60,84,13.78,BR,2020-06-13 23:04:06
Ulaanbaatar,47.91,106.88,44.6,70,0,1.41,MN,2020-06-13 23:00:16
São José da Coroa Grande,-8.9,-35.15,77.86,84,22,14.72,BR,2020-06-13 23:04:06
Vallenar,-28.57,-70.76,59.79,33,0,0.58,CL,2020-06-13 23:04:06
Moindou,-21.69,165.68,78.8,57,7,3.36,NC,2020-06-13 23:04:06
Omboué,-1.57,9.26,72.3,91,29,6.85,GA,2020-06-13 23:04:06
Kavaratti,10.57,72.64,84.79,75,80,25.01,IN,2020-06-13 23:04:07
Tegul'det,57.31,88.17,61.18,96,96,8.21,RU,2020-06-13 23:04:07
Matagami,49.75,-77.63,57.2,41,1,9.17,CA,2020-06-13 23:02:29
Boende,-0.22,20.87,72.5,89,21,0.2,CD,2020-06-13 23:04:07
Muyezerskiy,63.93,31.65,54.77,72,2,6.87,RU,2020-06-13 23:04:07
Bambous Virieux,-20.34,57.76,71.6,94,40,9.4,MU,2020-06-13 23:04:08
Marmora,44.46,7.09,61.0,89,97,1.01,IT,2020-06-13 23:04:08
Makkah al Mukarramah,21.43,39.83,90.19,29,2,3.78,SA,2020-06-13 23:04:08
Agadez,19.75,10.25,90.34,14,1,2.04,NE,2020-06-13 23:04:08
Sirte,31.21,16.59,75.72,50,0,22.57,LY,2020-06-13 23:04:09
Paamiut,61.99,-49.67,38.59,93,94,20.6,GL,2020-06-13 23:03:04
São Gabriel da Cachoeira,-0.13,-67.09,76.53,93,95,1.39,BR,2020-06-13 23:04:09
Pisco,-13.7,-76.22,66.2,77,40,9.17,PE,2020-06-13 23:04:09
Tezu,27.92,96.17,76.08,75,49,1.36,IN,2020-06-13 23:04:09
Kayes,14.0,-11.0,93.11,40,100,10.31,ML,2020-06-13 23:04:09
San Ramon,37.78,-121.98,73.0,37,1,9.17,US,2020-06-13 23:03:19
Bāfq,31.61,55.41,81.61,14,0,1.86,IR,2020-06-13 23:04:10
Amapá,1.0,-52.0,73.27,96,98,2.08,BR,2020-06-13 23:04:10
Karakol,42.49,78.39,49.68,45,0,4.0,KG,2020-06-13 23:04:10
Srednekolymsk,67.45,153.68,71.4,37,0,4.56,RU,2020-06-13 23:04:10
Beloha,-25.17,45.05,57.69,81,0,5.39,MG,2020-06-13 23:04:11
Maków Mazowiecki,52.86,21.1,64.0,100,97,11.79,PL,2020-06-13 23:04:11
Krasnozerskoye,53.98,79.24,60.04,94,94,10.0,RU,2020-06-13 23:04:11
Mountain Home,43.13,-115.69,60.8,51,90,11.41,US,2020-06-13 23:01:36
Wanning,18.8,110.4,77.79,91,100,7.54,CN,2020-06-13 23:04:11
Moree,-29.47,149.85,62.6,88,90,11.41,AU,2020-06-13 23:04:11
Nelson Bay,-32.72,152.15,59.0,100,90,6.93,AU,2020-06-13 23:00:07
Fortuna,40.6,-124.16,66.0,59,75,8.05,US,2020-06-13 23:04:12
Sotouboua,8.57,0.98,74.21,81,74,2.55,TG,2020-06-13 23:04:12
Umarizal,-5.99,-37.81,78.55,67,29,0.72,BR,2020-06-13 23:04:13
Minsk,53.9,27.57,57.2,76,75,13.42,BY,2020-06-13 23:00:00
Bosobolo,4.18,19.9,70.86,91,76,1.99,CD,2020-06-13 23:04:13
Turtas,58.94,69.13,45.27,95,83,10.13,RU,2020-06-13 23:04:13
General Roca,-39.03,-67.58,44.6,70,93,5.59,AR,2020-06-13 23:04:14
Port Shepstone,-30.74,30.45,54.68,49,0,9.95,ZA,2020-06-13 23:04:14
La Ronge,55.1,-105.28,75.2,44,75,17.22,CA,2020-06-13 23:04:14
Mangochi,-14.48,35.26,64.4,83,45,10.4,MW,2020-06-13 23:02:04
Chaozhou,23.67,116.64,82.4,88,40,6.71,CN,2020-06-13 23:04:14
Emba,48.83,58.14,67.6,73,0,11.61,KZ,2020-06-13 23:04:14
Batouri,4.43,14.37,66.83,95,94,0.63,CM,2020-06-13 23:04:14
Gari,59.43,62.35,40.15,72,1,9.15,RU,2020-06-13 23:04:15
Cabedelo,-6.98,-34.83,77.0,78,75,8.05,BR,2020-06-13 23:04:15
Harper,4.38,-7.72,78.19,85,100,10.25,LR,2020-06-13 23:04:15
Bjørnevatn,69.67,29.98,48.2,76,13,11.41,NO,2020-06-13 23:04:15
Waipawa,-41.41,175.52,55.0,75,20,5.82,NZ,2020-06-13 23:03:23
Tadine,-21.55,167.88,74.66,75,47,19.57,NC,2020-06-13 23:04:16
Nortelândia,-14.45,-56.8,80.15,57,78,1.97,BR,2020-06-13 23:04:16
Antsohihy,-14.88,47.99,69.44,55,14,9.06,MG,2020-06-13 23:04:16
Ejido,8.55,-71.24,70.72,65,90,3.53,VE,2020-06-13 23:04:16
Eyl,7.98,49.82,82.2,60,65,25.32,SO,2020-06-13 23:02:06
Tefé,-3.35,-64.71,80.01,74,34,2.26,BR,2020-06-13 23:04:17
Itháki,38.36,20.72,68.0,82,20,14.99,GR,2020-06-13 23:04:18
Oshikango,-17.4,15.88,53.6,46,0,2.24,NA,2020-06-13 23:04:18
Ariquemes,-9.91,-63.04,75.54,89,8,1.77,BR,2020-06-13 23:04:18
Nouadhibou,20.93,-17.03,86.0,37,19,25.28,MR,2020-06-13 23:04:18
Zdvinsk,54.7,78.66,57.49,91,96,10.51,RU,2020-06-13 23:04:19
Manjeshwar,12.72,74.89,75.2,94,75,8.05,IN,2020-06-13 23:04:19
Hvolsvollur,63.75,-20.22,45.0,85,69,1.99,IS,2020-06-13 23:04:19
Innisfail,-17.53,146.03,75.06,92,69,4.21,AU,2020-06-13 23:04:19
Ixtapa,20.7,-105.2,86.0,66,5,9.17,MX,2020-06-13 23:00:06
Maningrida,-12.07,134.27,75.42,75,16,11.54,AU,2020-06-13 23:04:19
Tura,25.52,90.22,74.59,95,74,3.87,IN,2020-06-13 23:04:19
Smithers,54.78,-127.17,57.2,67,75,3.36,CA,2020-06-13 23:03:27
Teahupoo,-17.83,-149.27,86.0,70,20,11.41,PF,2020-06-13 23:04:20
Cardoso,-20.08,-49.91,73.44,53,1,2.46,BR,2020-06-13 23:04:20
