City,Latitude,Longitude,Max Temperature (degF),Humidity (%),Cloudiness (%),Wind Speed (mph),Country,Date/Time (UTC)
Ahipara,-35.17,173.17,55.99,84,82,3.78,NZ,2020-06-13 13:44:24
Muros,42.78,-9.06,63.0,76,49,11.99,ES,2020-06-13 13:44:24
Ribeira Grande,38.52,-28.7,62.6,59,40,14.99,PT,2020-06-13 13:44:24
Marawi,8.0,124.29,79.0,85,100,5.99,PH,2020-06-13 13:44:24
Busselton,-33.65,115.33,55.0,76,7,11.16,AU,2020-06-13 13:44:24
Santa Maria,-29.68,-53.81,59.0,72,40,9.17,BR,2020-06-13 13:43:55
Visnes,59.36,5.22,75.99,52,90,5.82,NO,2020-06-13 13:44:25
Nueve de Julio,-35.44,-60.88,46.0,48,29,8.99,AR,2020-06-13 13:41:15
Mataura,-46.19,168.86,30.99,93,0,1.01,NZ,2020-06-13 13:44:25
Kapaa,22.08,-159.32,77.0,69,75,17.22,US,2020-06-13 13:39:38
Isfahan,32.66,51.68,98.6,4,0,11.41,IR,2020-06-13 13:44:25
Cabedelo,-6.98,-34.83,84.2,74,40,9.17,BR,2020-06-13 13:44:25
George Town,5.41,100.34,86.0,70,20,3.36,MY,2020-06-13 13:44:25
Mayo,38.89,-76.51,72.0,52,1,8.05,US,2020-06-13 13:44:26
Los Llanos de Aridane,28.66,-17.92,77.0,57,20,5.82,ES,2020-06-13 13:44:26
Severo-Kuril'sk,50.68,156.12,41.23,93,100,17.22,RU,2020-06-13 13:44:26
Tuatapere,-46.13,167.68,30.99,93,0,1.01,NZ,2020-06-13 13:44:26
Nikolskoye,59.7,30.79,69.8,30,0,13.42,RU,2020-06-13 13:44:26
Saint Paul Harbor,57.79,-152.41,42.8,87,1,4.7,US,2020-06-13 13:40:59
Bredasdorp,-34.53,20.04,64.4,48,100,5.17,ZA,2020-06-13 13:44:27
Clyde River,70.47,-68.59,30.2,92,90,13.87,CA,2020-06-13 13:44:27
Boende,-0.22,20.87,91.18,45,12,0.98,CD,2020-06-13 13:44:27
Yellowknife,62.46,-114.35,55.0,66,40,12.75,CA,2020-06-13 13:44:27
Todos Santos,23.45,-110.22,69.01,86,0,3.0,MX,2020-06-13 13:44:28
Rikitea,-23.12,-134.97,75.81,80,100,16.49,PF,2020-06-13 13:44:28
Matonga,-2.38,34.08,78.46,55,46,3.87,TZ,2020-06-13 13:44:28
Taoudenni,22.68,-3.98,111.97,10,0,17.34,ML,2020-06-13 13:44:28
La Asuncion,11.03,-63.86,82.4,74,94,12.75,VE,2020-06-13 13:44:28
Tuktoyaktuk,69.45,-133.04,46.4,75,40,11.41,CA,2020-06-13 13:44:29
Meadow Lake,34.8,-106.54,68.0,48,20,7.45,US,2020-06-13 13:44:29
Kavieng,-2.57,150.8,83.32,79,0,11.14,PG,2020-06-13 13:44:29
Baruun-Urt,46.68,113.28,58.5,52,0,8.68,MN,2020-06-13 13:44:29
Koutsouras,35.03,25.95,73.72,60,0,5.59,GR,2020-06-13 13:44:29
Celestún,20.87,-90.4,81.88,72,64,5.32,MX,2020-06-13 13:44:29
Hualmay,-11.1,-77.61,65.35,73,56,5.79,PE,2020-06-13 13:44:29
Arraial do Cabo,-22.97,-42.03,82.4,61,0,5.82,BR,2020-06-13 13:44:30
Karpathos,35.51,27.21,77.0,65,20,14.99,GR,2020-06-13 13:44:30
Kharp,66.8,65.81,49.87,49,36,12.46,RU,2020-06-13 13:44:30
Chardara,41.25,67.97,87.75,24,0,3.78,KZ,2020-06-13 13:44:30
Petatlán,17.52,-101.27,78.8,78,90,3.31,MX,2020-06-13 13:44:30
Hermanus,-34.42,19.23,63.0,63,100,1.01,ZA,2020-06-13 13:44:31
East London,-33.02,27.91,68.0,37,19,11.41,ZA,2020-06-13 13:44:31
Esperance,-33.87,121.9,55.4,76,4,18.34,AU,2020-06-13 13:44:31
Jumla,29.27,82.18,62.46,70,29,2.06,NP,2020-06-13 13:44:32
Dikson,73.51,80.55,35.26,86,100,15.79,RU,2020-06-13 13:44:32
Polunochnoye,60.87,60.42,51.78,52,91,12.19,RU,2020-06-13 13:44:32
Udangudi,8.43,78.02,87.73,57,14,20.29,IN,2020-06-13 13:44:32
Aklavik,68.22,-135.01,57.2,71,20,2.24,CA,2020-06-13 13:44:33
Khatanga,71.97,102.5,45.34,57,65,4.76,RU,2020-06-13 13:44:33
Norman Wells,65.28,-126.83,60.8,51,40,9.17,CA,2020-06-13 13:44:34
Bambous Virieux,-20.34,57.76,75.2,78,40,6.93,MU,2020-06-13 13:44:34
Genhe,50.78,121.52,47.35,89,1,1.81,CN,2020-06-13 13:39:46
Pisco,-13.7,-76.22,63.0,82,75,9.17,PE,2020-06-13 13:44:35
Palmer,42.16,-72.33,63.0,55,20,6.93,US,2020-06-13 13:44:35
Sovetskiy,61.36,63.58,51.48,58,96,12.3,RU,2020-06-13 13:43:41
Carnarvon,-24.87,113.63,66.76,35,2,21.77,AU,2020-06-13 13:44:36
Ilulissat,69.22,-51.1,42.8,45,20,5.82,GL,2020-06-13 13:44:36
Mackay,-21.15,149.2,72.0,88,90,4.7,AU,2020-06-13 13:44:37
Esperantinópolis,-4.87,-44.71,85.08,63,53,6.46,BR,2020-06-13 13:44:37
Jamestown,42.1,-79.24,54.0,76,75,6.93,US,2020-06-13 13:44:37
Husavik,66.04,-17.34,53.6,40,20,14.99,IS,2020-06-13 13:44:37
Katsuura,35.13,140.3,69.01,94,100,7.9,JP,2020-06-13 13:44:38
Tilichiki,60.47,166.1,43.54,75,100,4.25,RU,2020-06-13 13:44:38
Hirara,24.8,125.28,83.44,86,0,15.12,JP,2020-06-13 13:44:38
Terrace,54.52,-128.6,46.4,93,90,14.99,CA,2020-06-13 13:43:45
Barrow,71.29,-156.79,35.6,70,1,5.82,US,2020-06-13 13:44:38
Haines Junction,60.75,-137.51,52.47,78,100,2.75,CA,2020-06-13 13:44:39
Cape Town,-33.93,18.42,61.0,63,75,11.41,ZA,2020-06-13 13:44:39
Penzance,50.12,-5.54,60.01,82,64,17.22,GB,2020-06-13 13:42:35
Chokurdakh,70.63,147.92,59.56,68,89,9.82,RU,2020-06-13 13:44:39
Mehamn,71.04,27.85,52.68,54,28,12.71,NO,2020-06-13 13:44:40
San Patricio,19.22,-104.7,79.61,82,96,1.32,MX,2020-06-13 13:44:40
Yenagoa,4.92,6.26,82.56,82,100,7.14,NG,2020-06-13 13:44:40
Albany,42.6,-73.97,59.0,47,4,1.99,US,2020-06-13 13:44:19
Saint George,37.1,-113.58,68.0,14,1,9.17,US,2020-06-13 13:43:40
São Desidério,-12.36,-44.97,84.9,40,0,4.68,BR,2020-06-13 13:44:41
Bluff,-46.6,168.33,30.99,93,0,1.01,NZ,2020-06-13 13:44:41
Sisimiut,66.94,-53.67,43.14,59,100,7.36,GL,2020-06-13 13:44:41
Bozoum,6.32,16.38,81.37,65,97,3.96,CF,2020-06-13 13:44:41
Xuanzhou,30.95,118.76,78.76,91,100,4.76,CN,2020-06-13 13:44:28
Gorokhovets,56.19,42.7,60.8,55,40,13.42,RU,2020-06-13 13:44:41
Upernavik,72.79,-56.15,33.39,86,0,5.61,GL,2020-06-13 13:44:42
Stettler,52.32,-112.72,57.99,93,82,5.01,CA,2020-06-13 13:44:42
Faanui,-16.48,-151.75,80.69,77,55,10.16,PF,2020-06-13 13:44:42
Leningradskiy,69.38,178.42,49.59,65,15,5.03,RU,2020-06-13 13:44:43
Port Hedland,-20.32,118.57,75.2,64,90,5.82,AU,2020-06-13 13:44:43
Butaritari,3.07,172.79,81.86,77,38,12.84,KI,2020-06-13 13:44:43
Teguise,29.06,-13.56,75.2,64,20,6.93,ES,2020-06-13 13:44:43
Nanortalik,60.14,-45.24,46.15,80,98,9.28,GL,2020-06-13 13:44:43
Salinas,36.68,-121.66,57.2,82,90,4.7,US,2020-06-13 13:44:44
Mount Gambier,-37.83,140.77,50.0,87,94,11.41,AU,2020-06-13 13:44:44
Port Alfred,-33.59,26.89,63.0,73,0,3.0,ZA,2020-06-13 13:44:44
Aripuanã,-9.17,-60.63,84.07,72,8,1.23,BR,2020-06-13 13:44:44
Bonfim,3.08,-59.95,82.51,74,100,3.96,BR,2020-06-13 13:44:44
Mar del Plata,-38.0,-57.56,42.8,75,90,19.46,AR,2020-06-13 13:44:44
Lebu,-37.62,-73.65,46.72,71,90,4.97,CL,2020-06-13 13:44:45
Ushuaia,-54.8,-68.3,35.6,74,75,13.87,AR,2020-06-13 13:40:52
Vaini,-21.2,-175.2,71.6,73,20,9.17,TO,2020-06-13 13:44:45
Tiksi,71.69,128.87,38.21,77,76,3.11,RU,2020-06-13 13:44:46
Hobart,-42.88,147.33,51.8,66,75,5.82,AU,2020-06-13 13:44:21
Srednekolymsk,67.45,153.68,61.56,57,89,6.38,RU,2020-06-13 13:44:46
Kiryat Gat,31.61,34.76,91.0,27,0,3.0,IL,2020-06-13 13:44:46
Nouna,12.73,-3.87,101.62,26,1,8.66,BF,2020-06-13 13:44:47
Faya,18.39,42.45,86.0,37,40,13.87,SA,2020-06-13 13:44:47
Atuona,-9.8,-139.03,80.8,79,65,23.22,PF,2020-06-13 13:44:47
Dutlwe,-23.98,23.9,60.91,28,0,9.71,BW,2020-06-13 13:44:47
Avarua,-21.21,-159.78,71.6,53,27,4.7,CK,2020-06-13 13:44:47
Lamu,-2.27,40.9,79.65,73,6,17.52,KE,2020-06-13 13:44:47
Bilibino,68.05,166.44,56.26,77,100,2.91,RU,2020-06-13 13:44:48
Almaznyy,48.04,40.05,80.6,54,20,4.47,RU,2020-06-13 13:44:48
Muisne,0.6,-80.03,78.8,83,20,6.93,EC,2020-06-13 13:44:48
Mossamedes,-15.2,12.15,73.4,78,0,19.46,AO,2020-06-13 13:44:48
Gbarnga,7.0,-9.47,91.51,50,20,2.46,LR,2020-06-13 13:44:48
Bonthe,7.53,-12.51,84.02,74,65,8.34,SL,2020-06-13 13:44:49
Rocha,-34.48,-54.33,50.92,54,0,21.81,UY,2020-06-13 13:44:49
Lompoc,34.64,-120.46,53.6,81,0,4.7,US,2020-06-13 13:43:22
Inírida,3.87,-67.92,73.17,98,100,2.28,CO,2020-06-13 13:44:49
Hofn,64.25,-15.21,50.0,87,75,5.82,IS,2020-06-13 13:44:49
Provideniya,64.38,-173.3,43.14,79,57,4.76,RU,2020-06-13 13:44:50
Souillac,-20.52,57.52,75.2,78,40,6.93,MU,2020-06-13 13:44:50
Maningrida,-12.07,134.27,75.34,79,0,11.32,AU,2020-06-13 13:44:50
Gamba,-2.65,10.0,77.13,77,87,9.53,GA,2020-06-13 13:44:50
Tamandaré,-8.76,-35.1,83.35,69,14,7.23,BR,2020-06-13 13:44:51
Iracoubo,5.48,-53.2,78.8,85,100,11.81,GF,2020-06-13 13:44:51
Laas,46.62,10.7,62.6,48,20,9.17,IT,2020-06-13 13:44:51
Punta Arenas,-53.15,-70.92,32.0,84,20,8.05,CL,2020-06-13 13:44:51
Ugoofaaru,5.67,73.0,84.45,72,99,26.53,MV,2020-06-13 13:44:51
Majene,-3.54,118.97,79.2,86,95,10.49,ID,2020-06-13 13:44:52
Sechura,-5.56,-80.82,66.04,76,98,10.0,PE,2020-06-13 13:44:52
Turbat,26.0,63.04,96.04,39,53,12.5,PK,2020-06-13 13:44:52
Castro,-24.79,-50.01,72.41,62,30,11.74,BR,2020-06-13 13:44:52
Kathu,7.92,98.33,78.8,94,75,1.12,TH,2020-06-13 13:44:52
Shumskiy,54.83,99.13,61.47,82,44,4.41,RU,2020-06-13 13:44:52
Anadyr,64.75,177.48,55.4,47,40,17.9,RU,2020-06-13 13:44:53
Ancud,-41.87,-73.82,45.0,100,90,4.7,CL,2020-06-13 13:44:53
Vestmanna,62.16,-7.17,48.2,87,16,10.29,FO,2020-06-13 13:44:53
George Town,5.41,100.34,86.0,70,20,3.36,MY,2020-06-13 13:44:25
Monterey,36.25,-121.25,55.99,51,24,15.99,US,2020-06-13 13:44:53
Caravelas,-17.71,-39.25,82.53,54,0,4.5,BR,2020-06-13 13:44:54
Barra de Tecoanapa,16.52,-98.75,82.54,70,0,2.28,MX,2020-06-13 13:44:54
Saint-Joseph,-21.37,55.62,75.2,69,75,3.36,RE,2020-06-13 13:44:54
Mumbwa,-14.98,27.06,75.54,29,21,9.8,ZM,2020-06-13 13:44:54
Nyimba,-14.56,30.81,77.13,38,70,10.85,ZM,2020-06-13 13:44:54
Praia,14.92,-23.51,86.0,58,3,13.87,CV,2020-06-13 13:44:54
Kenitra,34.26,-6.58,75.2,53,40,9.17,MA,2020-06-13 13:44:55
Krasne,49.91,24.61,84.2,51,40,15.66,UA,2020-06-13 13:44:55
Houma,29.6,-90.72,79.0,73,40,8.05,US,2020-06-13 13:40:00
Tomatlán,19.93,-105.25,82.53,71,0,1.52,MX,2020-06-13 13:44:55
Pandan,14.05,124.17,80.44,84,100,4.05,PH,2020-06-13 13:44:56
Avera,33.19,-82.53,78.8,69,1,11.41,US,2020-06-13 13:44:56
Ngama,11.78,17.17,99.84,28,94,1.88,TD,2020-06-13 13:44:56
Odesa,46.48,30.73,75.2,64,78,8.95,UA,2020-06-13 13:44:56
Arrondissement de Villefranche-de-Rouergue,44.33,2.0,71.01,50,3,5.99,FR,2020-06-13 13:44:56
Tokur,53.13,132.9,41.2,91,100,4.18,RU,2020-06-13 13:44:56
Qaanaaq,77.48,-69.36,34.32,86,0,1.66,GL,2020-06-13 13:44:56
Lavrentiya,65.58,-171.0,41.67,79,0,5.41,RU,2020-06-13 13:44:57
Ponta do Sol,32.67,-17.1,69.01,88,75,4.7,PT,2020-06-13 13:44:57
Saint-Ambroise,48.55,-71.33,53.01,71,75,11.41,CA,2020-06-13 13:44:57
Abu Dhabi,24.47,54.37,98.6,60,98,11.41,AE,2020-06-13 13:42:27
Nouakchott,18.09,-15.98,84.2,70,64,20.8,MR,2020-06-13 13:44:57
Pilar,-9.6,-35.96,75.2,100,75,4.7,BR,2020-06-13 13:44:57
Egvekinot,66.32,-179.17,39.15,75,0,3.29,RU,2020-06-13 13:44:58
Mahébourg,-20.41,57.7,75.2,78,40,6.93,MU,2020-06-13 13:44:58
Klaksvík,62.23,-6.59,48.2,87,30,10.29,FO,2020-06-13 13:44:58
Mankera,31.39,71.44,109.71,10,38,4.5,PK,2020-06-13 13:44:59
Yerbogachën,61.28,108.01,50.11,68,100,2.3,RU,2020-06-13 13:44:59
Sawākin,19.11,37.33,98.64,28,0,10.13,SD,2020-06-13 13:44:59
Chum Phae,16.54,102.1,84.16,68,91,3.78,TH,2020-06-13 13:44:59
Beloha,-25.17,45.05,66.94,67,58,10.2,MG,2020-06-13 13:44:59
Okhotsk,59.38,143.3,45.75,83,100,4.76,RU,2020-06-13 13:44:59
Boa Vista,2.82,-60.67,78.8,78,75,4.7,BR,2020-06-13 13:45:00
Katherine,-14.47,132.27,71.6,49,1,5.82,AU,2020-06-13 13:45:00
Mount Isa,-20.73,139.5,69.8,43,0,6.93,AU,2020-06-13 13:45:00
Acapulco de Juárez,16.86,-99.89,80.6,94,75,3.71,MX,2020-06-13 13:41:52
Aasiaat,68.71,-52.87,36.55,77,76,10.09,GL,2020-06-13 13:45:00
Alekseyevka,50.63,38.69,84.79,63,78,8.21,RU,2020-06-13 13:45:01
Dehlorān,32.69,47.27,102.87,7,0,21.99,IR,2020-06-13 13:44:46
Eyl,7.98,49.82,90.79,42,94,23.31,SO,2020-06-13 13:45:01
Iqaluit,63.75,-68.51,37.4,69,75,3.27,CA,2020-06-13 13:45:01
Dubai,25.26,55.3,102.2,45,0,11.41,AE,2020-06-13 13:40:45
Poum,-20.23,164.02,73.76,74,97,11.3,NC,2020-06-13 13:45:02
Macamic,48.75,-79.0,42.8,53,20,9.17,CA,2020-06-13 13:45:02
Puerto Ayora,-0.74,-90.35,69.01,95,93,11.99,EC,2020-06-13 13:45:02
Bocas del Toro,9.33,-82.25,71.01,68,67,2.91,PA,2020-06-13 13:45:02
Thunder Bay,48.4,-89.32,52.0,87,75,2.24,CA,2020-06-13 13:42:07
Codrington,-38.27,141.97,52.25,91,100,12.08,AU,2020-06-13 13:45:03
Zaria,11.11,7.72,92.86,37,22,4.36,NG,2020-06-13 13:45:03
Rio Grande,-32.03,-52.1,55.4,58,0,11.41,BR,2020-06-13 13:45:03
Narimanov,46.69,47.85,98.6,11,8,15.66,RU,2020-06-13 13:45:03
Moree,-29.47,149.85,68.0,60,90,18.34,AU,2020-06-13 13:45:03
Padang,-0.95,100.35,81.03,74,95,3.91,ID,2020-06-13 13:45:04
Atbasar,51.8,68.33,68.61,72,42,20.94,KZ,2020-06-13 13:45:04
Samarai,-10.62,150.67,80.47,87,49,15.55,PG,2020-06-13 13:45:04
Batamshinskiy,50.56,58.27,84.2,51,75,15.66,KZ,2020-06-13 13:45:04
Hithadhoo,-0.6,73.08,80.71,85,100,22.39,MV,2020-06-13 13:41:15
Pevek,69.7,170.31,41.49,81,100,2.57,RU,2020-06-13 13:45:04
Ürümqi,43.8,87.6,80.6,28,20,13.42,CN,2020-06-13 13:45:04
Moundou,8.57,16.08,84.2,74,20,6.93,TD,2020-06-13 13:45:05
São Paulo de Olivença,-3.38,-68.87,84.69,65,0,2.35,BR,2020-06-13 13:45:05
Ratnagiri,16.98,73.3,81.5,84,95,9.91,IN,2020-06-13 13:45:05
Fortuna,40.6,-124.16,53.01,100,40,4.7,US,2020-06-13 13:45:05
Svetlaya,46.54,138.33,51.48,79,26,9.98,RU,2020-06-13 13:45:05
Tatarsk,55.22,75.98,61.02,94,100,4.07,RU,2020-06-13 13:45:06
Katobu,-4.94,122.53,75.54,93,87,4.12,ID,2020-06-13 13:45:06
Syracuse,37.09,15.28,80.6,50,100,10.29,IT,2020-06-13 13:45:06
Merauke,-8.47,140.33,78.96,87,54,13.94,ID,2020-06-13 13:45:06
Berlevåg,70.86,29.09,52.52,56,3,11.36,NO,2020-06-13 13:45:06
Saskylakh,71.92,114.08,44.69,62,100,6.6,RU,2020-06-13 13:45:07
Flinders,-34.58,150.86,62.01,89,100,1.01,AU,2020-06-13 13:45:07
Ballyhaunis,53.77,-8.77,64.0,57,100,8.01,IE,2020-06-13 13:45:07
Nioki,-2.72,17.68,90.55,46,66,1.12,CD,2020-06-13 13:45:07
Bom Jesus da Lapa,-13.26,-43.42,80.6,54,0,5.82,BR,2020-06-13 13:40:25
Hong Kong,22.29,114.16,84.0,84,15,21.0,HK,2020-06-13 13:41:48
Ilebo,-4.32,20.58,90.72,40,76,1.54,CD,2020-06-13 13:45:08
Kavaratti,10.57,72.64,85.06,75,100,24.63,IN,2020-06-13 13:45:08
Sisophon,13.59,102.97,82.06,82,100,6.85,KH,2020-06-13 13:45:08
Sitka,57.05,-135.33,50.0,87,75,4.7,US,2020-06-13 13:45:08
Kuvandyk,51.48,57.36,72.93,63,6,10.47,RU,2020-06-13 13:45:08
Baisha,26.52,110.93,79.79,75,60,3.36,CN,2020-06-13 13:45:09
Belaya Gora,68.53,146.42,60.08,60,14,3.09,RU,2020-06-13 13:45:09
Isangel,-19.55,169.27,73.76,77,100,18.66,VU,2020-06-13 13:45:09
Olafsvik,64.89,-23.71,46.47,74,98,14.74,IS,2020-06-13 13:45:09
Coquimbo,-29.95,-71.34,59.0,33,0,4.7,CL,2020-06-13 13:41:16
Beringovskiy,63.05,179.32,43.29,75,0,4.5,RU,2020-06-13 13:45:10
Astrea,9.5,-73.98,81.52,85,100,2.1,CO,2020-06-13 13:45:10
Corlăţel,44.4,22.93,79.65,59,19,6.58,RO,2020-06-13 13:45:10
Longyearbyen,78.22,15.64,41.0,78,40,18.34,SJ,2020-06-13 13:45:10
Kenai,60.55,-151.26,45.0,81,1,3.36,US,2020-06-13 13:45:10
Saldanha,-33.01,17.94,60.8,38,100,6.93,ZA,2020-06-13 13:45:10
San Quintín,30.48,-115.95,63.21,82,29,10.65,MX,2020-06-13 13:45:11
Vardø,70.37,31.11,64.4,25,0,6.93,NO,2020-06-13 13:45:11
Vao,-22.67,167.48,72.43,76,98,22.1,NC,2020-06-13 13:45:11
Devonport,-41.17,146.35,54.0,87,97,8.01,AU,2020-06-13 13:45:11
Hilo,19.73,-155.09,71.6,83,90,6.93,US,2020-06-13 13:45:11
Boone,39.03,-92.33,77.0,69,1,5.91,US,2020-06-13 13:45:12
Namatanai,-3.67,152.43,80.33,80,30,6.62,PG,2020-06-13 13:45:12
Yanam,16.73,82.22,89.6,62,40,10.29,IN,2020-06-13 13:45:12
Nioro,13.35,-15.75,97.99,35,94,6.06,GM,2020-06-13 13:45:12
Kiama,-34.68,150.87,62.01,86,100,8.99,AU,2020-06-13 13:45:12
Paita,-5.09,-81.11,64.4,82,85,25.28,PE,2020-06-13 13:45:12
Laguna,38.42,-121.42,57.99,76,75,11.41,US,2020-06-13 13:45:13
Buraidah,26.33,43.98,102.2,15,0,3.36,SA,2020-06-13 13:45:13
Jacareacanga,-6.22,-57.75,84.2,72,94,1.86,BR,2020-06-13 13:45:13
Inuvik,68.35,-133.72,59.0,51,20,2.24,CA,2020-06-13 13:45:13
Kutum,14.2,24.67,98.78,8,0,12.26,SD,2020-06-13 13:45:13
Āsosa,10.07,34.53,73.94,83,28,4.25,ET,2020-06-13 13:45:14
Sitrah,26.15,50.62,96.8,32,0,20.8,BH,2020-06-13 13:45:14
Antalaha,-14.9,50.28,74.03,74,26,13.47,MG,2020-06-13 13:45:14
Maun,-19.98,23.42,68.0,14,0,6.93,BW,2020-06-13 13:45:14
Dingle,11.0,122.67,80.2,80,100,4.56,PH,2020-06-13 13:45:14
Chifeng,42.27,118.96,64.49,42,0,18.54,CN,2020-06-13 13:45:15
Seoul,37.57,126.98,78.8,53,90,2.24,KR,2020-06-13 13:41:52
Jambi City,-1.6,103.62,75.09,86,99,2.17,ID,2020-06-13 13:41:19
Kishtwār,33.32,75.77,67.87,50,0,2.68,IN,2020-06-13 13:45:15
San Cristobal,7.77,-72.22,82.4,65,40,10.29,VE,2020-06-13 13:45:15
Port-Gentil,-0.72,8.78,80.6,74,40,16.11,GA,2020-06-13 13:45:15
Frekhaug,60.51,5.24,78.01,52,75,5.82,NO,2020-06-13 13:45:16
Bodden Town,19.28,-81.25,86.0,70,20,2.24,KY,2020-06-13 13:45:16
Gilgit,35.92,74.31,74.41,26,98,4.0,PK,2020-06-13 13:45:16
Saint-Philippe,-21.36,55.77,75.2,69,75,3.36,RE,2020-06-13 13:45:16
Fairbanks,64.84,-147.72,55.99,76,20,4.7,US,2020-06-13 13:45:16
Raja,8.46,25.68,93.27,37,26,1.41,SS,2020-06-13 13:45:17
Prince Rupert,54.32,-130.32,48.2,100,90,8.05,CA,2020-06-13 13:45:17
Vila Velha,-20.33,-40.29,82.4,65,0,5.82,BR,2020-06-13 13:43:12
Zhanakorgan,43.91,67.25,93.49,11,0,14.23,KZ,2020-06-13 13:45:17
Monywa,22.12,95.13,96.42,41,100,8.23,MM,2020-06-13 13:45:18
San Juan,-31.54,-68.54,50.76,46,0,9.98,AR,2020-06-13 13:45:18
La Palma,33.85,-118.05,64.4,72,90,5.82,US,2020-06-13 13:45:18
Kahului,20.89,-156.47,77.0,61,1,18.34,US,2020-06-13 13:45:18
Biak,-0.91,122.88,77.68,80,87,1.88,ID,2020-06-13 13:45:18
Tautira,-17.73,-149.15,77.0,78,20,3.36,PF,2020-06-13 13:45:18
Iralaya,15.0,-83.23,83.26,73,85,7.92,HN,2020-06-13 13:45:19
Cherskiy,68.75,161.3,59.05,58,70,3.09,RU,2020-06-13 13:45:19
Airai,-8.93,125.41,58.05,92,1,3.38,TL,2020-06-13 13:45:19
Kulhudhuffushi,6.62,73.07,84.16,78,69,22.3,MV,2020-06-13 13:45:19
Kaitangata,-46.28,169.85,42.01,79,0,3.31,NZ,2020-06-13 13:45:19
Lehi,40.39,-111.85,72.0,45,0,6.08,US,2020-06-13 13:45:20
Shenjiamen,29.96,122.3,76.91,89,78,21.9,CN,2020-06-13 13:45:20
Bac Giang,21.27,106.2,87.8,70,100,11.41,VN,2020-06-13 13:45:20
Paamiut,61.99,-49.67,40.35,89,100,32.37,GL,2020-06-13 13:45:20
Tawang Town,27.58,91.87,59.02,80,100,0.89,IN,2020-06-13 13:45:20
Mnogovershinnyy,53.94,139.92,35.47,100,100,5.53,RU,2020-06-13 13:45:20
El Escorial,40.59,-4.15,70.0,41,67,5.01,ES,2020-06-13 13:45:21
Putai,46.66,1.99,69.8,56,6,17.22,FR,2020-06-13 13:45:21
Saint-François,46.42,3.91,68.0,56,100,5.82,FR,2020-06-13 13:45:21
Asău,46.43,26.4,75.0,70,99,2.75,RO,2020-06-13 13:45:21
Boden,65.83,21.69,66.2,45,0,12.75,SE,2020-06-13 13:45:21
Manzhouli,49.6,117.43,58.64,42,5,9.37,CN,2020-06-13 13:45:21
Ubatuba,-23.43,-45.07,71.6,73,99,1.81,BR,2020-06-13 13:45:22
Bitung,1.45,125.18,78.8,88,20,1.12,ID,2020-06-13 13:45:22
Mantenópolis,-18.86,-41.12,78.98,59,0,2.68,BR,2020-06-13 13:45:22
Port Blair,11.67,92.75,83.46,83,44,11.43,IN,2020-06-13 13:45:22
Cidreira,-30.18,-50.21,62.6,86,100,15.61,BR,2020-06-13 13:45:22
Thompson,55.74,-97.86,53.6,46,20,5.82,CA,2020-06-13 13:45:22
Kandrian,-6.22,149.55,78.31,87,61,5.1,PG,2020-06-13 13:45:22
Semenivka,52.18,32.58,73.85,83,95,15.93,UA,2020-06-13 13:45:23
Cayenne,4.93,-52.33,82.4,88,75,4.7,GF,2020-06-13 13:45:23
Monteroni di Lecce,40.32,18.1,80.6,47,20,12.75,IT,2020-06-13 13:45:23
Bethel,41.37,-73.41,62.01,55,1,9.17,US,2020-06-13 13:45:23
Bilma,18.69,12.92,113.67,8,0,10.87,NE,2020-06-13 13:45:23
Koudougou,12.25,-2.37,101.08,24,0,11.39,BF,2020-06-13 13:45:23
Ukiah,39.15,-123.21,55.4,66,75,6.93,US,2020-06-13 13:45:24
Maragogi,-9.01,-35.22,82.44,74,0,8.08,BR,2020-06-13 13:45:24
Ranong,9.97,98.63,75.2,100,20,7.83,TH,2020-06-13 13:45:24
Tasiilaq,65.61,-37.64,37.4,100,75,3.91,GL,2020-06-13 13:45:24
Talnakh,69.49,88.4,57.2,35,63,11.18,RU,2020-06-13 13:45:24
New Norfolk,-42.78,147.06,48.99,76,100,3.0,AU,2020-06-13 13:45:24
Clarence Town,-32.58,151.78,61.0,100,100,5.82,AU,2020-06-13 13:45:24
Mbamba,9.98,13.1,91.9,43,97,6.35,NG,2020-06-13 13:45:25
Acarí,-15.43,-74.62,70.38,51,99,4.83,PE,2020-06-13 13:45:25
Nānākuli,21.39,-158.15,77.0,73,75,5.82,US,2020-06-13 13:45:25
Sioux Lookout,50.1,-91.92,51.8,66,20,4.7,CA,2020-06-13 13:45:25
Calbuco,-41.77,-73.13,42.8,87,75,10.29,CL,2020-06-13 13:45:26
Nha Trang,12.25,109.18,87.8,70,40,1.12,VN,2020-06-13 13:45:26
Medicine Hat,50.05,-110.67,63.0,77,90,5.82,CA,2020-06-13 13:45:26
Pacific Grove,36.62,-121.92,55.99,87,75,4.7,US,2020-06-13 13:42:20
Krasnosel'kup,65.7,82.47,56.86,54,100,15.88,RU,2020-06-13 13:45:26
Brownsville,25.9,-97.5,75.99,73,20,5.82,US,2020-06-13 13:43:36
Margate,51.38,1.39,73.0,56,8,5.01,GB,2020-06-13 13:42:38
Havelock,34.88,-76.9,69.8,83,90,13.87,US,2020-06-13 13:45:27
Gornopravdinsk,60.05,69.9,51.21,58,59,8.63,RU,2020-06-13 13:45:27
Joshīmath,30.57,79.57,66.42,40,33,2.21,IN,2020-06-13 13:45:27
Bengkulu,-3.8,102.27,79.47,86,100,10.33,ID,2020-06-13 13:43:00
Kawardha,22.02,81.25,81.28,79,100,12.35,IN,2020-06-13 13:45:28
Erenhot,43.65,111.98,66.2,32,0,8.57,CN,2020-06-13 13:45:28
Pozo Colorado,-23.49,-58.8,72.09,94,100,8.1,PY,2020-06-13 13:45:28
Beberibe,-4.18,-38.13,82.4,65,20,11.41,BR,2020-06-13 13:45:29
Ternate,0.8,127.4,81.7,77,70,2.93,ID,2020-06-13 13:45:29
Simplício Mendes,-7.85,-41.91,83.95,50,35,11.01,BR,2020-06-13 13:45:29
Meulaboh,4.14,96.13,81.39,76,100,1.01,ID,2020-06-13 13:45:29
Kyren,51.68,102.14,61.77,50,21,1.48,RU,2020-06-13 13:45:29
Kotelnikowo,47.63,43.15,92.77,25,86,5.66,RU,2020-06-13 13:45:29
São Filipe,14.9,-24.5,75.79,82,0,4.94,CV,2020-06-13 13:45:29
Yar-Sale,66.83,70.83,53.98,41,100,17.6,RU,2020-06-13 13:45:29
Coahuayana Viejo,18.73,-103.68,73.4,78,75,2.86,MX,2020-06-13 13:45:30
Katangli,51.71,143.23,41.86,97,100,11.61,RU,2020-06-13 13:45:30
Camacha,33.08,-16.33,69.8,73,75,6.93,PT,2020-06-13 13:45:30
Sterling,39.01,-77.43,70.0,45,20,8.05,US,2020-06-13 13:43:26
Nagahama,35.38,136.27,73.99,100,75,2.24,JP,2020-06-13 13:45:30
Port Hardy,50.7,-127.42,48.2,100,75,2.24,CA,2020-06-13 13:45:31
Llanes,43.42,-4.75,66.0,78,86,5.99,ES,2020-06-13 13:45:31
Luau,-10.71,22.22,83.7,22,0,4.38,AO,2020-06-13 13:45:31
Honningsvåg,70.98,25.97,47.71,71,46,8.21,NO,2020-06-13 13:45:31
Deputatsky,69.3,139.9,52.21,68,30,0.83,RU,2020-06-13 13:45:32
Dezhou,37.45,116.29,88.48,30,100,8.86,CN,2020-06-13 13:45:32
Kidal,18.44,1.41,109.71,10,0,0.89,ML,2020-06-13 13:45:32
Saint-Pierre,-21.34,55.48,75.2,69,75,3.36,RE,2020-06-13 13:45:32
Vozhega,60.47,40.22,62.92,44,0,7.14,RU,2020-06-13 13:45:32
Yārāda,17.65,83.27,86.0,79,75,11.41,IN,2020-06-13 13:45:32
Tyukalinsk,55.87,72.2,58.48,67,52,15.7,RU,2020-06-13 13:45:32
Balabac,7.99,117.06,83.37,79,85,11.14,PH,2020-06-13 13:45:33
Baharly,38.44,57.43,100.54,9,0,15.17,TM,2020-06-13 13:45:33
Anáhuac,27.23,-100.15,71.6,78,5,7.07,MX,2020-06-13 13:45:33
Qaqortoq,60.72,-46.03,42.8,87,75,3.36,GL,2020-06-13 13:45:34
Monforte de Lemos,42.52,-7.51,55.0,77,48,8.01,ES,2020-06-13 13:45:35
Sheridan,44.83,-106.92,72.0,37,1,4.7,US,2020-06-13 13:45:35
San Martín,-33.08,-68.47,42.8,56,0,4.7,AR,2020-06-13 13:41:43
Vitim,59.45,112.56,49.75,90,67,5.14,RU,2020-06-13 13:45:35
Itoman,26.12,127.67,82.4,94,20,11.41,JP,2020-06-13 13:45:35
Aykhal,66.0,111.5,35.6,100,90,6.71,RU,2020-06-13 13:45:35
Sørland,67.67,12.69,55.15,73,100,13.4,NO,2020-06-13 13:45:35
Santa Isabel Rio Negro,-0.41,-65.02,86.29,65,24,2.98,BR,2020-06-13 13:45:36
Wollongong,-34.43,150.88,62.01,89,100,1.01,AU,2020-06-13 13:45:36
Mabaruma,8.2,-59.78,85.95,63,68,7.11,GY,2020-06-13 13:45:36
Asilah,35.47,-6.03,73.4,49,40,10.29,MA,2020-06-13 13:45:37
Heraclea,37.51,34.05,73.08,26,46,10.09,TR,2020-06-13 13:45:37
Surgut,61.25,73.42,53.6,71,75,8.95,RU,2020-06-13 13:45:37
Zeya,53.75,127.27,60.71,55,51,6.42,RU,2020-06-13 13:45:37
Port-Cartier,50.03,-66.87,51.01,61,75,13.87,CA,2020-06-13 13:45:38
Touros,-5.2,-35.46,80.6,83,75,6.93,BR,2020-06-13 13:45:38
Fredericia,55.57,9.75,68.0,93,90,16.11,DK,2020-06-13 13:45:38
Praia,14.92,-23.51,86.0,58,6,13.87,CV,2020-06-13 13:45:38
Peniche,39.36,-9.38,69.01,71,35,15.01,PT,2020-06-13 13:45:39
Evansville,37.97,-87.56,77.0,60,1,3.36,US,2020-06-13 13:42:29
Yangi Marg`ilon,40.43,71.72,91.4,17,26,6.93,UZ,2020-06-13 13:45:39
Sakaiminato,35.55,133.23,73.4,94,90,14.99,JP,2020-06-13 13:45:39
Constitución,-35.33,-72.42,49.48,65,36,6.64,CL,2020-06-13 13:45:39
San Rafael,-34.62,-68.33,46.29,50,1,11.34,AR,2020-06-13 13:45:39
Gambēla,8.25,34.58,85.51,63,85,2.01,ET,2020-06-13 13:45:39
Nome,64.5,-165.41,41.0,86,1,3.65,US,2020-06-13 13:45:39
Buchanan,5.88,-10.05,82.4,83,75,9.17,LR,2020-06-13 13:45:40
Imbituba,-28.24,-48.67,77.0,65,100,17.22,BR,2020-06-13 13:45:40
College,64.86,-147.8,57.0,76,75,3.36,US,2020-06-13 13:45:40
São Félix do Xingu,-6.64,-51.99,85.15,58,86,4.94,BR,2020-06-13 13:45:40
Kamyshin,50.1,45.42,84.38,51,0,16.28,RU,2020-06-13 13:45:40
Baiyin,36.56,104.21,59.0,58,0,4.47,CN,2020-06-13 13:45:40
Rincon,32.3,-81.24,75.2,88,90,6.93,US,2020-06-13 13:45:41
Ambilobe,-13.2,49.05,79.09,60,64,1.81,MG,2020-06-13 13:45:41
Kaura Namoda,12.59,6.58,96.49,31,0,2.93,NG,2020-06-13 13:45:41
Trofors,65.53,13.41,75.2,27,87,16.11,NO,2020-06-13 13:45:41
Lata,40.16,-8.33,70.0,62,50,9.48,PT,2020-06-13 13:45:41
Hobyo,5.35,48.53,82.87,66,52,29.35,SO,2020-06-13 13:45:42
Dingli,35.86,14.38,82.4,39,8,6.93,MT,2020-06-13 13:45:42
Mazatlán,23.22,-106.42,80.01,83,75,4.7,MX,2020-06-13 13:45:19
Kautokeino,69.01,23.04,74.3,26,89,13.27,NO,2020-06-13 13:45:42
Abnūb,27.27,31.15,104.0,17,0,16.11,EG,2020-06-13 13:45:42
Brae,60.4,-1.35,60.8,87,100,20.8,GB,2020-06-13 13:45:43
Hambantota,6.12,81.12,89.6,70,20,16.11,LK,2020-06-13 13:45:43
Guerrero Negro,27.98,-114.06,65.34,78,0,13.02,MX,2020-06-13 13:45:43
Pascagoula,30.37,-88.56,77.0,69,1,6.93,US,2020-06-13 13:45:43
Coruripe,-10.13,-36.18,77.49,87,91,12.44,BR,2020-06-13 13:45:43
Adrar,20.5,-10.07,103.86,16,12,19.6,MR,2020-06-13 13:45:43
Bambanglipuro,-7.95,110.28,79.32,84,18,11.92,ID,2020-06-13 13:45:44
Ippy,6.27,21.22,83.5,68,24,5.68,CF,2020-06-13 13:45:44
Comodoro Rivadavia,-45.87,-67.5,32.0,65,6,11.41,AR,2020-06-13 13:45:01
Korla,41.76,86.15,80.8,18,52,7.56,CN,2020-06-13 13:45:44
Christchurch,-43.53,172.63,32.0,100,0,2.24,NZ,2020-06-13 13:42:25
Valparaíso,-33.04,-71.63,50.0,65,1,8.05,CL,2020-06-13 13:45:44
Venado,22.93,-101.08,57.61,76,36,2.01,MX,2020-06-13 13:45:45
Hornepayne,49.21,-84.77,57.67,38,56,5.95,CA,2020-06-13 13:45:45
Pimentel,-6.84,-79.93,64.4,77,20,8.05,PE,2020-06-13 13:45:45
Balakhta,55.38,91.6,66.43,79,79,6.46,RU,2020-06-13 13:45:45
Lianzhou,24.78,112.38,80.62,81,53,3.04,CN,2020-06-13 13:45:45
Takoradze,4.88,-1.76,80.11,83,100,13.09,GH,2020-06-13 13:45:45
Itaituba,-4.28,-55.98,80.6,88,75,3.13,BR,2020-06-13 13:45:46
Zhigansk,66.77,123.37,55.15,73,57,9.31,RU,2020-06-13 13:45:46
Shumikha,55.23,63.3,57.49,57,4,10.47,RU,2020-06-13 13:45:46
Wanning,18.8,110.4,82.51,84,100,8.19,CN,2020-06-13 13:45:46
Rosetta,31.4,30.42,80.6,54,0,11.41,EG,2020-06-13 13:45:47
Beatrice,40.27,-96.75,75.2,64,1,8.05,US,2020-06-13 13:45:47
Lahat,-3.8,103.53,73.31,90,91,3.13,ID,2020-06-13 13:45:47
Soyo,-6.13,12.37,80.6,65,75,6.93,AO,2020-06-13 13:45:47
Khasan,42.43,130.64,62.08,86,76,2.86,RU,2020-06-13 13:45:47
Lamar,33.67,-95.58,78.01,64,1,3.36,US,2020-06-13 13:45:47
Hasaki,35.73,140.83,66.2,100,75,2.24,JP,2020-06-13 13:45:48
Aksarka,66.56,67.8,51.22,46,0,14.56,RU,2020-06-13 13:45:48
Collinsville,38.67,-89.98,77.0,64,1,3.36,US,2020-06-13 13:45:48
Port Elizabeth,-33.92,25.57,64.4,55,0,17.22,ZA,2020-06-13 13:45:48
Kruisfontein,-34.0,24.73,59.81,57,0,10.22,ZA,2020-06-13 13:45:48
Westport,41.14,-73.36,64.99,48,1,10.29,US,2020-06-13 13:43:59
Riyadh,24.69,46.72,107.6,11,99,5.82,SA,2020-06-13 13:45:49
Kangaatsiaq,68.31,-53.46,37.06,76,96,12.62,GL,2020-06-13 13:45:49
Tigil',57.8,158.67,52.74,53,21,5.46,RU,2020-06-13 13:45:49
Owerri,5.48,7.03,84.2,79,75,5.82,NG,2020-06-13 13:45:50
Aktobe,50.28,57.21,86.0,30,0,13.42,KZ,2020-06-13 13:45:50
Lira,2.23,32.91,74.71,84,93,2.3,UG,2020-06-13 13:45:50
Kommunisticheskiy,61.68,64.48,49.69,65,99,12.24,RU,2020-06-13 13:45:50
San Francisco,37.77,-122.42,57.99,82,75,14.99,US,2020-06-13 13:43:01
Shingū,33.73,135.98,74.5,91,100,9.64,JP,2020-06-13 13:45:51
Kudahuvadhoo,2.67,72.89,83.98,73,100,23.71,MV,2020-06-13 13:45:51
Ulaanbaatar,47.91,106.88,62.6,36,0,6.71,MN,2020-06-13 13:43:43
Broken Hill,-31.95,141.43,50.0,87,0,11.41,AU,2020-06-13 13:45:51
Sur,22.57,59.53,93.33,47,0,5.86,OM,2020-06-13 13:45:51
Pinotepa Nacional,16.32,-98.02,81.81,67,5,2.75,MX,2020-06-13 13:45:51
Gisors,49.28,1.78,75.2,36,16,13.87,FR,2020-06-13 13:45:51
Levelland,33.59,-102.38,73.0,40,1,9.17,US,2020-06-13 13:45:52
La Cañada Flintridge,34.2,-118.19,60.8,77,1,3.36,US,2020-06-13 13:41:36
Sylvania,41.72,-83.71,60.01,67,1,13.65,US,2020-06-13 13:45:52
Peekskill,41.29,-73.92,66.0,47,0,5.01,US,2020-06-13 13:43:25
Duncan,34.5,-97.96,75.0,72,1,5.82,US,2020-06-13 13:45:52
Mayumba,-3.43,10.66,75.58,79,85,10.27,GA,2020-06-13 13:45:53
Ginir,7.13,40.7,67.48,81,99,7.31,ET,2020-06-13 13:45:53
Aswān,24.09,32.91,113.49,8,0,13.58,EG,2020-06-13 13:45:53
Miles City,46.41,-105.84,69.8,56,1,16.11,US,2020-06-13 13:45:53
Tarangnan,11.9,124.75,80.2,85,100,5.44,PH,2020-06-13 13:45:54
Igrim,63.19,64.42,52.38,54,94,14.43,RU,2020-06-13 13:45:54
Narsaq,60.92,-46.05,42.8,87,75,3.36,GL,2020-06-13 13:45:54
Chui,-33.7,-53.46,53.04,44,0,18.92,UY,2020-06-13 13:45:54
La Rioja,-29.41,-66.85,58.17,35,5,5.37,AR,2020-06-13 13:45:54
Maputo,-25.97,32.59,73.4,31,20,9.17,MZ,2020-06-13 13:45:54
São João da Barra,-21.64,-41.05,80.6,65,0,4.7,BR,2020-06-13 13:45:54
Aginskoye,51.1,114.53,55.8,58,96,6.51,RU,2020-06-13 13:45:55
Hay River,60.82,-115.8,41.0,93,75,5.82,CA,2020-06-13 13:45:55
Kieta,-6.22,155.63,79.36,80,16,4.65,PG,2020-06-13 13:45:55
Beira,-19.84,34.84,69.8,83,90,14.99,MZ,2020-06-13 13:45:55
Iquique,-20.22,-70.14,62.6,67,90,4.7,CL,2020-06-13 13:45:55
Tazovsky,67.47,78.7,54.03,42,100,13.4,RU,2020-06-13 13:45:56
Lewistown,40.6,-77.57,59.0,54,75,5.82,US,2020-06-13 13:45:56
Odienné,9.51,-7.57,91.33,48,82,4.32,CI,2020-06-13 13:45:56
Yeppoon,-23.13,150.73,69.8,94,40,4.7,AU,2020-06-13 13:45:56
Grindavik,63.84,-22.43,48.2,70,75,11.41,IS,2020-06-13 13:45:56
Harper,4.38,-7.72,79.9,82,100,12.26,LR,2020-06-13 13:45:57
Cap Malheureux,-19.98,57.61,73.99,78,26,3.0,MU,2020-06-13 13:45:57
Palmerston,-12.49,130.98,77.0,83,0,3.36,AU,2020-06-13 13:45:57
Boundiali,9.52,-6.49,93.4,41,18,6.06,CI,2020-06-13 13:45:58
Rawson,-43.3,-65.1,39.9,67,0,16.15,AR,2020-06-13 13:45:58
Adet,11.26,37.49,60.71,79,99,2.53,ET,2020-06-13 13:45:58
Jaroměřice nad Rokytnou,49.09,15.89,80.6,44,26,8.05,CZ,2020-06-13 13:45:58
Alexandria,31.22,29.96,80.6,54,0,11.41,EG,2020-06-13 13:43:34
Alta Gracia,-31.65,-64.43,48.99,33,0,9.17,AR,2020-06-13 13:45:59
Piaçabuçu,-10.41,-36.43,77.83,87,87,12.57,BR,2020-06-13 13:45:59
Marzuq,14.4,46.47,90.27,26,94,4.76,YE,2020-06-13 13:45:59
Daşoguz,41.84,59.97,100.4,12,87,9.17,TM,2020-06-13 13:45:59
Koutiala,12.39,-5.46,100.24,28,0,7.83,ML,2020-06-13 13:45:59
Buin,-33.73,-70.75,37.4,86,1,2.24,CL,2020-06-13 13:43:09
Arlit,18.74,7.39,109.58,12,0,5.66,NE,2020-06-13 13:45:59
Waddān,29.16,16.14,100.63,10,0,7.72,LY,2020-06-13 13:46:00
Maniitsoq,65.42,-52.9,40.26,90,100,9.98,GL,2020-06-13 13:46:00
Mazagão,-0.12,-51.29,86.0,79,40,4.7,BR,2020-06-13 13:46:00
Astoria,46.19,-123.83,52.0,87,75,3.36,US,2020-06-13 13:46:00
Lüderitz,-26.65,15.16,73.4,18,0,16.11,NA,2020-06-13 13:46:01
Muzhi,65.37,64.67,51.53,52,79,18.19,RU,2020-06-13 13:46:01
Fukuechō,32.69,128.84,77.04,94,96,19.91,JP,2020-06-13 13:46:01
Lorengau,-2.02,147.27,82.6,77,77,9.06,PG,2020-06-13 13:46:01
Hervey Bay,-25.3,152.85,69.01,94,36,3.0,AU,2020-06-13 13:46:01
Omboué,-1.57,9.26,78.03,75,88,9.98,GA,2020-06-13 13:46:01
Kalabo,-14.97,22.68,80.76,19,0,6.64,ZM,2020-06-13 13:46:02
Byron Bay,-28.65,153.62,64.99,93,100,9.1,AU,2020-06-13 13:45:11
Thinadhoo,0.53,72.93,79.47,85,100,16.17,MV,2020-06-13 13:46:02
Creutzwald,49.2,6.68,73.99,60,83,4.52,FR,2020-06-13 13:46:02
Kuusamo,65.97,29.18,71.6,28,4,5.82,FI,2020-06-13 13:46:03
Kattivākkam,13.22,80.32,91.4,59,40,11.41,IN,2020-06-13 13:46:03
San Andrés,12.58,-81.7,77.0,94,90,11.41,CO,2020-06-13 13:43:26
Shache,38.42,77.24,78.93,25,100,6.46,CN,2020-06-13 13:46:04
Vostok,46.49,135.88,50.74,92,37,3.47,RU,2020-06-13 13:46:04
Bathsheba,13.22,-59.52,80.6,78,75,21.92,BB,2020-06-13 13:46:04
Durango,24.83,-104.83,61.75,44,92,2.15,MX,2020-06-13 13:45:25
Ballina,-28.87,153.57,64.99,93,100,10.4,AU,2020-06-13 13:46:05
Zhoukou,33.63,114.63,85.23,54,17,5.23,CN,2020-06-13 13:44:07
Basco,20.45,121.97,84.79,81,0,21.59,PH,2020-06-13 13:46:05
Bagotville,-28.98,153.42,64.99,93,100,7.34,AU,2020-06-13 13:46:05
Kem',64.96,34.58,63.01,50,0,9.04,RU,2020-06-13 13:46:05
Linqing,36.85,115.71,87.89,31,96,7.09,CN,2020-06-13 13:46:06
Garhi Khairo,28.06,67.98,111.67,6,0,3.4,PK,2020-06-13 13:46:06
Kaeo,-35.1,173.78,55.0,3,66,1.99,NZ,2020-06-13 13:46:06
Morón,-34.65,-58.62,50.0,44,0,8.99,AR,2020-06-13 13:46:06
Port Lincoln,-34.73,135.87,54.18,72,15,12.57,AU,2020-06-13 13:46:06
Abonnema,4.71,6.79,84.2,79,75,5.82,NG,2020-06-13 13:46:07
Hamilton,39.18,-84.53,66.2,72,75,8.05,US,2020-06-13 13:45:57
Killybegs,54.63,-8.45,62.6,87,90,3.36,IE,2020-06-13 13:46:07
Borba,-4.39,-59.59,85.89,66,35,2.77,BR,2020-06-13 13:46:07
Salalah,17.02,54.09,87.8,84,40,16.11,OM,2020-06-13 13:46:07
Umm Kaddadah,13.6,26.69,101.97,13,5,2.66,SD,2020-06-13 13:46:08
Abapó,-18.83,-63.47,72.43,79,93,1.88,BO,2020-06-13 13:46:08
Nieuw Amsterdam,5.88,-55.08,79.0,88,40,9.75,SR,2020-06-13 13:46:08
Poso,-1.4,120.75,76.89,81,41,4.68,ID,2020-06-13 13:46:08
Torbay,47.67,-52.73,68.0,88,75,13.87,CA,2020-06-13 13:46:09
Camaná,-16.62,-72.71,66.58,70,92,8.05,PE,2020-06-13 13:45:39
Caceres,39.52,-6.37,70.0,41,92,5.99,ES,2020-06-13 13:46:09
Yumen,40.28,97.2,75.47,17,6,19.35,CN,2020-06-13 13:46:09
Sinnamary,5.38,-52.95,79.21,89,100,10.04,GF,2020-06-13 13:46:09
Chokwé,-24.53,32.98,70.09,49,9,11.7,MZ,2020-06-13 13:46:10
Pangnirtung,66.15,-65.71,36.54,76,0,2.48,CA,2020-06-13 13:46:10
Nouadhibou,20.93,-17.03,96.8,26,0,20.8,MR,2020-06-13 13:46:10
Nizhniy Tsasuchey,50.52,115.13,58.69,53,100,6.93,RU,2020-06-13 13:46:10
Praia da Vitória,38.73,-27.07,62.6,63,75,11.81,PT,2020-06-13 13:46:10
Ketchikan,55.34,-131.65,53.6,93,90,4.54,US,2020-06-13 13:46:10
Bazarnye Mataki,54.88,49.93,60.49,74,91,8.1,RU,2020-06-13 13:46:11
Marovoay,-16.1,46.63,87.8,35,20,6.93,MG,2020-06-13 13:46:11
Barreirinhas,-2.75,-42.83,85.73,65,68,6.71,BR,2020-06-13 13:46:11
Kamuli,0.95,33.12,79.48,60,25,2.13,UG,2020-06-13 13:46:11
Batticaloa,7.71,81.69,85.01,77,5,4.85,LK,2020-06-13 13:46:11
Budureasa,46.67,22.5,84.2,58,20,5.82,RO,2020-06-13 13:46:12
Terney,45.05,136.61,59.88,68,0,6.4,RU,2020-06-13 13:46:12
Shonguy,68.75,33.15,73.4,20,0,6.71,RU,2020-06-13 13:46:12
Suntar,62.14,117.63,51.19,94,25,6.06,RU,2020-06-13 13:46:12
Tura,25.52,90.22,74.41,94,98,5.14,IN,2020-06-13 13:46:12
Oktyabr'skiy,54.48,53.47,58.86,68,27,11.61,RU,2020-06-13 13:46:13
Kasongo,-4.45,26.67,90.43,33,14,2.68,CD,2020-06-13 13:46:13
Bojnourd,37.47,57.33,93.2,9,40,9.17,IR,2020-06-13 13:46:13
Kashgar,39.45,75.98,71.6,37,20,8.95,CN,2020-06-13 13:46:13
Havøysund,71.0,24.66,59.0,47,40,9.17,NO,2020-06-13 13:46:14
Serenje,-13.23,30.24,70.18,32,0,10.25,ZM,2020-06-13 13:46:14
Marshall,34.38,-86.33,77.0,60,1,3.36,US,2020-06-13 13:46:14
Kyra,49.58,111.98,53.8,61,0,7.25,RU,2020-06-13 13:46:14
Kokopo,-4.35,152.26,79.16,82,0,8.77,PG,2020-06-13 13:46:14
Ojinaga,29.57,-104.42,77.0,33,1,10.29,MX,2020-06-13 13:46:15
Mopti,14.67,-4.0,106.27,19,0,13.78,ML,2020-06-13 13:46:15
Geraldton,-28.77,114.6,55.4,87,40,6.93,AU,2020-06-13 13:46:15
Olinda,-8.01,-34.86,84.2,70,40,8.05,BR,2020-06-13 13:46:15
Khāsh,28.22,61.22,95.38,9,0,17.96,IR,2020-06-13 13:41:21
Kāndri,21.42,79.27,86.0,70,75,4.34,IN,2020-06-13 13:46:16
Porrentruy,47.42,7.08,75.2,47,20,13.87,CH,2020-06-13 13:46:16
Al Bardīyah,31.76,25.09,75.78,47,12,18.95,LY,2020-06-13 13:46:16
Nantucket,41.28,-70.1,69.01,52,1,14.99,US,2020-06-13 13:42:28
Marsá Maţrūḩ,31.35,27.25,75.2,64,0,10.29,EG,2020-06-13 13:46:17
Washington,47.5,-120.5,57.99,69,100,5.1,US,2020-06-13 13:45:11
Londonderry,55.0,-7.31,62.6,72,20,10.29,GB,2020-06-13 13:46:18
Teluk Nibung,3.0,99.82,79.88,86,73,5.01,ID,2020-06-13 13:46:18
Sungai Raya,0.7,108.9,80.76,84,77,11.74,ID,2020-06-13 13:46:18
Krasnoarmeysk,51.02,45.7,75.13,75,29,15.59,RU,2020-06-13 13:46:19
Diego de Almagro,-26.37,-70.05,72.1,17,0,0.34,CL,2020-06-13 13:46:19
Mogok,22.92,96.5,68.86,100,100,2.35,MM,2020-06-13 13:46:19
Ajdabiya,30.76,20.23,84.43,31,0,20.98,LY,2020-06-13 13:46:19
Griffith,41.53,-87.42,62.01,76,40,8.97,US,2020-06-13 13:46:20
Ozernovskiy,51.5,156.52,44.91,80,97,13.6,RU,2020-06-13 13:46:20
Mehrān,33.12,46.16,87.8,14,0,11.41,IR,2020-06-13 13:46:21
Sherbakul',54.63,72.4,64.4,59,40,15.66,RU,2020-06-13 13:46:21
Forsytheganj,52.63,29.73,64.83,85,100,16.06,BY,2020-06-13 13:46:22
Merano,46.67,11.16,84.2,32,20,5.82,IT,2020-06-13 13:46:22
Lagoa,39.05,-27.98,59.76,71,95,12.62,PT,2020-06-13 13:46:22
Cabo San Lucas,22.89,-109.91,79.0,79,0,6.6,MX,2020-06-13 13:43:21
Sola,-13.88,167.55,80.46,82,100,19.15,VU,2020-06-13 13:46:22
Waipawa,-41.41,175.52,46.4,75,79,1.12,NZ,2020-06-13 13:46:22
Māndal,25.45,74.57,99.18,24,74,4.14,IN,2020-06-13 13:46:23
Linhares,-19.39,-40.07,83.66,52,0,5.95,BR,2020-06-13 13:42:05
Singaraja,-8.11,115.09,79.83,79,89,7.09,ID,2020-06-13 13:42:40
Nkhata Bay,-11.61,34.29,77.0,44,43,7.27,MW,2020-06-13 13:46:24
Liberal,37.04,-100.92,66.2,39,1,16.11,US,2020-06-13 13:46:24
Alofi,-19.06,-169.92,71.6,64,0,11.41,NU,2020-06-13 13:46:24
Ostrovnoy,68.05,39.51,55.53,47,0,6.4,RU,2020-06-13 13:46:24
